{
"type": "FeatureCollection",
"name": "EGBa",
"crs": { "type": "name", "properties": { "name": "urn:ogc:def:crs:EPSG::3857" } },
"features": [
{ "type": "Feature", "properties": { "RegNTurism": 8252, "NomEstable": "BARRA BTA AEROP. MUELLE NACIONAL", "SubCatRNT": "N", "SecCatastr": "AEROPUERTO EL DORADO", "Latitud": 4.687388, "Longitud": -74.132858, "Localidad": "9" }, "geometry": { "type": "Point", "coordinates": [ -8252432.003599999472, 522380.680599998682737 ] } },
{ "type": "Feature", "properties": { "RegNTurism": 11511, "NomEstable": "KOKORIKO PUENTE AEREO", "SubCatRNT": "PC", "SecCatastr": "AEROPUERTO EL DORADO", "Latitud": 4.692191, "Longitud": -74.134834, "Localidad": "9" }, "geometry": { "type": "Point", "coordinates": [ -8252651.970899999142, 522917.144299998879433 ] } },
{ "type": "Feature", "properties": { "RegNTurism": 14421, "NomEstable": "CREPES Y WAFFLES SA  RESTAURANTE CENTRO INTERNACIONAL", "SubCatRNT": "PC", "SecCatastr": "SAN DIEGO", "Latitud": 4.615323, "Longitud": -74.069326, "Localidad": "3" }, "geometry": { "type": "Point", "coordinates": [ -8245359.653699999675, 514331.933200001716614 ] } },
{ "type": "Feature", "properties": { "RegNTurism": 14422, "NomEstable": "CREPES Y WAFFLES S A  RESTAURANTE WORDL TRADE CENTER", "SubCatRNT": "PC", "SecCatastr": "CHICO NORTE II SECTOR", "Latitud": 4.681049, "Longitud": -74.040728, "Localidad": "2" }, "geometry": { "type": "Point", "coordinates": [ -8242176.1389, 521672.66160000115633 ] } },
{ "type": "Feature", "properties": { "RegNTurism": 14427, "NomEstable": "RESTAURANTE CASA VIEJA", "SubCatRNT": "PC", "SecCatastr": "LA CATEDRAL", "Latitud": 4.600626, "Longitud": -74.069601, "Localidad": "17" }, "geometry": { "type": "Point", "coordinates": [ -8245390.266599999741, 512690.56529999896884 ] } },
{ "type": "Feature", "properties": { "RegNTurism": 14441, "NomEstable": "CREPES Y WAFFLES S A  RESTAURANTE LAS AGUAS", "SubCatRNT": "PC", "SecCatastr": "LA CATEDRAL", "Latitud": 4.60058, "Longitud": -74.070934, "Localidad": "17" }, "geometry": { "type": "Point", "coordinates": [ -8245538.6555, 512685.427999999374151 ] } },
{ "type": "Feature", "properties": { "RegNTurism": 14444, "NomEstable": "CREPES Y WAFFLES S A  RESTAURANTE CALLE 83", "SubCatRNT": "PC", "SecCatastr": "EL RETIRO", "Latitud": 4.667798, "Longitud": -74.05377, "Localidad": "2" }, "geometry": { "type": "Point", "coordinates": [ -8243627.9677, 520192.644200000911951 ] } },
{ "type": "Feature", "properties": { "RegNTurism": 14445, "NomEstable": "CREPES Y WAFFLES S A  RESTAURANTE PARQUE 93", "SubCatRNT": "PC", "SecCatastr": "CHICO NORTE", "Latitud": 4.677297, "Longitud": -74.04842, "Localidad": "2" }, "geometry": { "type": "Point", "coordinates": [ -8243032.408399999142, 521253.594099998474121 ] } },
{ "type": "Feature", "properties": { "RegNTurism": 14599, "NomEstable": "BOGOTA BEER COMPANY S A", "SubCatRNT": "K", "SecCatastr": "EL RETIRO", "Latitud": 4.667396, "Longitud": -74.053334, "Localidad": "2" }, "geometry": { "type": "Point", "coordinates": [ -8243579.43239999935, 520147.744899999350309 ] } },
{ "type": "Feature", "properties": { "RegNTurism": 14600, "NomEstable": "THE PUB", "SubCatRNT": "K", "SecCatastr": "EL RETIRO", "Latitud": 4.667851, "Longitud": -74.053731, "Localidad": "2" }, "geometry": { "type": "Point", "coordinates": [ -8243623.626299999654, 520198.563799999654293 ] } },
{ "type": "Feature", "properties": { "RegNTurism": 14601, "NomEstable": "BOGOTA BEER COMPANY", "SubCatRNT": "K", "SecCatastr": "CHICO NORTE", "Latitud": 4.675758, "Longitud": -74.047892, "Localidad": "2" }, "geometry": { "type": "Point", "coordinates": [ -8242973.631799999624, 521081.701200000941753 ] } },
{ "type": "Feature", "properties": { "RegNTurism": 14602, "NomEstable": "BOGOTA BEER COMPANY", "SubCatRNT": "K", "SecCatastr": "USAQUEN", "Latitud": 4.695732, "Longitud": -74.03029, "Localidad": "1" }, "geometry": { "type": "Point", "coordinates": [ -8241014.1861, 523312.653099998831749 ] } },
{ "type": "Feature", "properties": { "RegNTurism": 14603, "NomEstable": "BOGOTA BEER COMPANY", "SubCatRNT": "K", "SecCatastr": "SANTA BARBARA OCCIDENTAL", "Latitud": 4.701426, "Longitud": -74.049388, "Localidad": "1" }, "geometry": { "type": "Point", "coordinates": [ -8243140.165699999779, 523948.643599998206 ] } },
{ "type": "Feature", "properties": { "RegNTurism": 14604, "NomEstable": "BOGOTA BEER COMPANY", "SubCatRNT": "K", "SecCatastr": "LA CABRERA", "Latitud": 4.669216, "Longitud": -74.053818, "Localidad": "2" }, "geometry": { "type": "Point", "coordinates": [ -8243633.3111, 520351.020700000226498 ] } },
{ "type": "Feature", "properties": { "RegNTurism": 14630, "NomEstable": "RESTAURANTE WOK", "SubCatRNT": "PC", "SecCatastr": "QUINTA CAMACHO", "Latitud": 4.653418, "Longitud": -74.058715, "Localidad": "2" }, "geometry": { "type": "Point", "coordinates": [ -8244178.4426, 518586.559399999678135 ] } },
{ "type": "Feature", "properties": { "RegNTurism": 14631, "NomEstable": "RESTAURANTE WOK", "SubCatRNT": "PC", "SecCatastr": "EL RETIRO", "Latitud": 4.667621, "Longitud": -74.054557, "Localidad": "2" }, "geometry": { "type": "Point", "coordinates": [ -8243715.576199999079, 520172.875100001692772 ] } },
{ "type": "Feature", "properties": { "RegNTurism": 14632, "NomEstable": "RESTAURANTE WOK", "SubCatRNT": "PC", "SecCatastr": "SANTA BARBARA OCCIDENTAL", "Latitud": 4.700248, "Longitud": -74.049743, "Localidad": "1" }, "geometry": { "type": "Point", "coordinates": [ -8243179.6841, 523817.066599998623133 ] } },
{ "type": "Feature", "properties": { "RegNTurism": 14633, "NomEstable": "RESTAURANTE WOK", "SubCatRNT": "PC", "SecCatastr": "CHICO NORTE", "Latitud": 4.677297, "Longitud": -74.04842, "Localidad": "2" }, "geometry": { "type": "Point", "coordinates": [ -8243032.408399999142, 521253.594099998474121 ] } },
{ "type": "Feature", "properties": { "RegNTurism": 14643, "NomEstable": "CLUB DEL VINO LA BRASSERIE", "SubCatRNT": "PC", "SecCatastr": "LA CABRERA", "Latitud": 4.669531, "Longitud": -74.05351, "Localidad": "2" }, "geometry": { "type": "Point", "coordinates": [ -8243599.0247, 520386.203099999576807 ] } },
{ "type": "Feature", "properties": { "RegNTurism": 14645, "NomEstable": "DI LUCCA", "SubCatRNT": "PC", "SecCatastr": "LA CABRERA", "Latitud": 4.669607, "Longitud": -74.053469, "Localidad": "2" }, "geometry": { "type": "Point", "coordinates": [ -8243594.460599999875, 520394.691599998623133 ] } },
{ "type": "Feature", "properties": { "RegNTurism": 14686, "NomEstable": "RESTAURANTE CASA SAN ISIDRO", "SubCatRNT": "PC", "SecCatastr": "PARQUE NACIONAL ORIENTAL", "Latitud": 4.602765, "Longitud": -74.061061, "Localidad": "3" }, "geometry": { "type": "Point", "coordinates": [ -8244439.59809999913, 512929.447700001299381 ] } },
{ "type": "Feature", "properties": { "RegNTurism": 14687, "NomEstable": "RESTAURANTE CASA SANTA CLARA", "SubCatRNT": "PC", "SecCatastr": "PARQUE NACIONAL ORIENTAL", "Latitud": 4.602765, "Longitud": -74.061061, "Localidad": "3" }, "geometry": { "type": "Point", "coordinates": [ -8244439.59809999913, 512929.447700001299381 ] } },
{ "type": "Feature", "properties": { "RegNTurism": 14717, "NomEstable": "MONSERRATE PARRILLA", "SubCatRNT": "N", "SecCatastr": "PARQUE NACIONAL ORIENTAL", "Latitud": 4.602765, "Longitud": -74.061061, "Localidad": "3" }, "geometry": { "type": "Point", "coordinates": [ -8244439.59809999913, 512929.447700001299381 ] } },
{ "type": "Feature", "properties": { "RegNTurism": 14892, "NomEstable": "TAQUERIA CALLE 93", "SubCatRNT": "PC", "SecCatastr": "CHICO NORTE", "Latitud": 4.674714, "Longitud": -74.048396, "Localidad": "2" }, "geometry": { "type": "Point", "coordinates": [ -8243029.7368, 520965.095600001513958 ] } },
{ "type": "Feature", "properties": { "RegNTurism": 14893, "NomEstable": "TAQUERIA CALLE 116", "SubCatRNT": "PC", "SecCatastr": "SANTA BARBARA OCCIDENTAL", "Latitud": 4.696679, "Longitud": -74.043729, "Localidad": "1" }, "geometry": { "type": "Point", "coordinates": [ -8242510.208699999377, 523418.427799999713898 ] } },
{ "type": "Feature", "properties": { "RegNTurism": 15014, "NomEstable": "BARRA BTA BAVARIA", "SubCatRNT": "N", "SecCatastr": "SAN DIEGO", "Latitud": 4.615239, "Longitud": -74.06935, "Localidad": "3" }, "geometry": { "type": "Point", "coordinates": [ -8245362.3254, 514322.552000001072884 ] } },
{ "type": "Feature", "properties": { "RegNTurism": 15016, "NomEstable": "BARRA BTA ANDINO", "SubCatRNT": "N", "SecCatastr": "EL RETIRO", "Latitud": 4.66627, "Longitud": -74.052629, "Localidad": "2" }, "geometry": { "type": "Point", "coordinates": [ -8243500.952199999243, 520021.982200000435114 ] } },
{ "type": "Feature", "properties": { "RegNTurism": 15204, "NomEstable": "RESTAURANTE FELIX", "SubCatRNT": "PC", "SecCatastr": "VERACRUZ", "Latitud": 4.600732, "Longitud": -74.071553, "Localidad": "3" }, "geometry": { "type": "Point", "coordinates": [ -8245607.5622, 512702.403299998492002 ] } },
{ "type": "Feature", "properties": { "RegNTurism": 15433, "NomEstable": "TIENDAS DE CAFE USAQUEN", "SubCatRNT": "PC", "SecCatastr": "USAQUEN", "Latitud": 4.695454, "Longitud": -74.030745, "Localidad": "1" }, "geometry": { "type": "Point", "coordinates": [ -8241064.8364, 523281.602099999785423 ] } },
{ "type": "Feature", "properties": { "RegNTurism": 15682, "NomEstable": "TRAMONTI", "SubCatRNT": "PC", "SecCatastr": "PARAMO I RURAL", "Latitud": 4.669664, "Longitud": -74.039032, "Localidad": "2" }, "geometry": { "type": "Point", "coordinates": [ -8241987.341099999845, 520401.057900000363588 ] } },
{ "type": "Feature", "properties": { "RegNTurism": 16701, "NomEstable": "CBC 218", "SubCatRNT": "PC", "SecCatastr": "SANTA BARBARA OCCIDENTAL", "Latitud": 4.698389, "Longitud": -74.043152, "Localidad": "1" }, "geometry": { "type": "Point", "coordinates": [ -8242445.977399999276, 523609.425700001418591 ] } },
{ "type": "Feature", "properties": { "RegNTurism": 17422, "NomEstable": "RESTAURANTE WOK", "SubCatRNT": "PC", "SecCatastr": "SAN MARTIN", "Latitud": 4.616106, "Longitud": -74.068282, "Localidad": "3" }, "geometry": { "type": "Point", "coordinates": [ -8245243.4362, 514419.379999998956919 ] } },
{ "type": "Feature", "properties": { "RegNTurism": 18694, "NomEstable": "CREPES Y WAFFLES S A  RESTAURANTE USAQUEN", "SubCatRNT": "PC", "SecCatastr": "USAQUEN", "Latitud": 4.696054, "Longitud": -74.030141, "Localidad": "1" }, "geometry": { "type": "Point", "coordinates": [ -8240997.5995, 523348.618700001388788 ] } },
{ "type": "Feature", "properties": { "RegNTurism": 19005, "NomEstable": "8 SILLAS", "SubCatRNT": "PC", "SecCatastr": "USAQUEN", "Latitud": 4.694992, "Longitud": -74.031524, "Localidad": "1" }, "geometry": { "type": "Point", "coordinates": [ -8241151.5543, 523229.999299999326468 ] } },
{ "type": "Feature", "properties": { "RegNTurism": 19006, "NomEstable": "OSAKI USAQUEN", "SubCatRNT": "PC", "SecCatastr": "USAQUEN", "Latitud": 4.695054, "Longitud": -74.031656, "Localidad": "1" }, "geometry": { "type": "Point", "coordinates": [ -8241166.2485, 523236.9243 ] } },
{ "type": "Feature", "properties": { "RegNTurism": 19007, "NomEstable": "CENTRAL CEVICHERIA", "SubCatRNT": "PC", "SecCatastr": "LA CABRERA", "Latitud": 4.66938, "Longitud": -74.05359, "Localidad": "2" }, "geometry": { "type": "Point", "coordinates": [ -8243607.930199999362, 520369.337900001555681 ] } },
{ "type": "Feature", "properties": { "RegNTurism": 19009, "NomEstable": "OSAKI CLL 93", "SubCatRNT": "PC", "SecCatastr": "CHICO NORTE", "Latitud": 4.676447, "Longitud": -74.047539, "Localidad": "2" }, "geometry": { "type": "Point", "coordinates": [ -8242934.336, 521158.656399998813868 ] } },
{ "type": "Feature", "properties": { "RegNTurism": 19082, "NomEstable": "ANDRES D.C", "SubCatRNT": "PC", "SecCatastr": "ESPARTILLAL", "Latitud": 4.666534, "Longitud": -74.054298, "Localidad": "2" }, "geometry": { "type": "Point", "coordinates": [ -8243686.7444, 520051.468299999833107 ] } },
{ "type": "Feature", "properties": { "RegNTurism": 21678, "NomEstable": "TERIYAKI SUSHI BAR", "SubCatRNT": "PC", "SecCatastr": "CHICO NORTE", "Latitud": 4.676494, "Longitud": -74.049397, "Localidad": "2" }, "geometry": { "type": "Point", "coordinates": [ -8243141.1676, 521163.905900001525879 ] } },
{ "type": "Feature", "properties": { "RegNTurism": 21680, "NomEstable": "TERIYAKI 69", "SubCatRNT": "PC", "SecCatastr": "EMAUS", "Latitud": 4.651855, "Longitud": -74.056019, "Localidad": "2" }, "geometry": { "type": "Point", "coordinates": [ -8243878.3253, 518411.991799999028444 ] } },
{ "type": "Feature", "properties": { "RegNTurism": 21758, "NomEstable": "CREPES Y WAFFLES S A  PLAZA 39", "SubCatRNT": "PC", "SecCatastr": "SUCRE", "Latitud": 4.626476, "Longitud": -74.065686, "Localidad": "2" }, "geometry": { "type": "Point", "coordinates": [ -8244954.450799999759, 515577.528200000524521 ] } },
{ "type": "Feature", "properties": { "RegNTurism": 21935, "NomEstable": "LA PLAZA DE ANDRES", "SubCatRNT": "PC", "SecCatastr": "ESPARTILLAL", "Latitud": 4.665607, "Longitud": -74.054324, "Localidad": "2" }, "geometry": { "type": "Point", "coordinates": [ -8243689.638699999079, 519947.932 ] } },
{ "type": "Feature", "properties": { "RegNTurism": 22158, "NomEstable": "AGADON BURGER AND BEER", "SubCatRNT": "PC", "SecCatastr": "LA CABRERA", "Latitud": 4.670065, "Longitud": -74.053225, "Localidad": "2" }, "geometry": { "type": "Point", "coordinates": [ -8243567.298599999398, 520445.845699999481 ] } },
{ "type": "Feature", "properties": { "RegNTurism": 22207, "NomEstable": "CASA COMIDA PARA COMPARTIR", "SubCatRNT": "PC", "SecCatastr": "LA CABRERA", "Latitud": 4.669461, "Longitud": -74.053547, "Localidad": "2" }, "geometry": { "type": "Point", "coordinates": [ -8243603.1435, 520378.384799998253584 ] } },
{ "type": "Feature", "properties": { "RegNTurism": 22432, "NomEstable": "BBC PUB ROSALES", "SubCatRNT": "K", "SecCatastr": "EMAUS", "Latitud": 4.65411, "Longitud": -74.053706, "Localidad": "2" }, "geometry": { "type": "Point", "coordinates": [ -8243620.843299999833, 518663.847300000488758 ] } },
{ "type": "Feature", "properties": { "RegNTurism": 22434, "NomEstable": "BOGOTA BEER COMPANY S A", "SubCatRNT": "K", "SecCatastr": "SANTA BARBARA OCCIDENTAL", "Latitud": 4.697495, "Longitud": -74.045877, "Localidad": "1" }, "geometry": { "type": "Point", "coordinates": [ -8242749.323, 523509.570599999278784 ] } },
{ "type": "Feature", "properties": { "RegNTurism": 22604, "NomEstable": "AMARTI", "SubCatRNT": "PC", "SecCatastr": "USAQUEN", "Latitud": 4.695451, "Longitud": -74.030738, "Localidad": "1" }, "geometry": { "type": "Point", "coordinates": [ -8241064.05719999969, 523281.267000000923872 ] } },
{ "type": "Feature", "properties": { "RegNTurism": 22605, "NomEstable": "7 16 STEAK HOUSE", "SubCatRNT": "PC", "SecCatastr": "USAQUEN", "Latitud": 4.696122, "Longitud": -74.030326, "Localidad": "1" }, "geometry": { "type": "Point", "coordinates": [ -8241018.1936, 523356.213899999856949 ] } },
{ "type": "Feature", "properties": { "RegNTurism": 22606, "NomEstable": "KOI BY WATAKUSHI", "SubCatRNT": "PC", "SecCatastr": "USAQUEN", "Latitud": 4.695682, "Longitud": -74.03129, "Localidad": "1" }, "geometry": { "type": "Point", "coordinates": [ -8241125.5056, 523307.068399999290705 ] } },
{ "type": "Feature", "properties": { "RegNTurism": 22609, "NomEstable": "WATAKUSHI", "SubCatRNT": "PC", "SecCatastr": "EL RETIRO", "Latitud": 4.667277, "Longitud": -74.053449, "Localidad": "2" }, "geometry": { "type": "Point", "coordinates": [ -8243592.2342, 520134.45380000025034 ] } },
{ "type": "Feature", "properties": { "RegNTurism": 22611, "NomEstable": "CAFE ILLY 87", "SubCatRNT": "L", "SecCatastr": "LA CABRERA", "Latitud": 4.672879, "Longitud": -74.053933, "Localidad": "2" }, "geometry": { "type": "Point", "coordinates": [ -8243646.1128, 520760.142900001257658 ] } },
{ "type": "Feature", "properties": { "RegNTurism": 22612, "NomEstable": "PIAZZA  PRAVDA", "SubCatRNT": "PC", "SecCatastr": "EL RETIRO", "Latitud": 4.667565, "Longitud": -74.053938, "Localidad": "2" }, "geometry": { "type": "Point", "coordinates": [ -8243646.669399999082, 520166.62049999833107 ] } },
{ "type": "Feature", "properties": { "RegNTurism": 22613, "NomEstable": "LUNA RESTAURANTE", "SubCatRNT": "PC", "SecCatastr": "EL RETIRO", "Latitud": 4.667275, "Longitud": -74.053801, "Localidad": "2" }, "geometry": { "type": "Point", "coordinates": [ -8243631.4186, 520134.230399999767542 ] } },
{ "type": "Feature", "properties": { "RegNTurism": 22845, "NomEstable": "RESTAURANTE WOK", "SubCatRNT": "PC", "SecCatastr": "USAQUEN", "Latitud": 4.694427, "Longitud": -74.031725, "Localidad": "1" }, "geometry": { "type": "Point", "coordinates": [ -8241173.9295, 523166.892099998891354 ] } },
{ "type": "Feature", "properties": { "RegNTurism": 23310, "NomEstable": "HAMBURGUESAS DEL RODEO", "SubCatRNT": "O", "SecCatastr": "LA CATEDRAL", "Latitud": 4.600385, "Longitud": -74.074055, "Localidad": "17" }, "geometry": { "type": "Point", "coordinates": [ -8245886.083599999547, 512663.650600001215935 ] } },
{ "type": "Feature", "properties": { "RegNTurism": 23409, "NomEstable": "PESQUERA JARAMILLO SUC. CHICO", "SubCatRNT": "PC", "SecCatastr": "CHICO NORTE", "Latitud": 4.676143, "Longitud": -74.047995, "Localidad": "2" }, "geometry": { "type": "Point", "coordinates": [ -8242985.097699999809, 521124.702300000935793 ] } },
{ "type": "Feature", "properties": { "RegNTurism": 23878, "NomEstable": "LA BIFERIA S.A.", "SubCatRNT": "PC", "SecCatastr": "USAQUEN", "Latitud": 4.694656, "Longitud": -74.0316, "Localidad": "1" }, "geometry": { "type": "Point", "coordinates": [ -8241160.014599999413, 523192.469999998807907 ] } },
{ "type": "Feature", "properties": { "RegNTurism": 24254, "NomEstable": "GALERIA CAFE LIBRO RESTAURANTE BAR", "SubCatRNT": "K", "SecCatastr": "CHICO NORTE", "Latitud": 4.67533, "Longitud": -74.048113, "Localidad": "2" }, "geometry": { "type": "Point", "coordinates": [ -8242998.2334, 521033.897300001233816 ] } },
{ "type": "Feature", "properties": { "RegNTurism": 24344, "NomEstable": "RISTORANTE BELLINI", "SubCatRNT": "PC", "SecCatastr": "EL RETIRO", "Latitud": 4.668226, "Longitud": -74.054222, "Localidad": "2" }, "geometry": { "type": "Point", "coordinates": [ -8243678.284099999815, 520240.447500001639128 ] } },
{ "type": "Feature", "properties": { "RegNTurism": 24345, "NomEstable": "RESTAURANTE TRATTORIA BELLINI", "SubCatRNT": "PC", "SecCatastr": "SAMPER", "Latitud": 4.616312, "Longitud": -74.069246, "Localidad": "3" }, "geometry": { "type": "Point", "coordinates": [ -8245350.748199999332, 514442.386399999260902 ] } },
{ "type": "Feature", "properties": { "RegNTurism": 24346, "NomEstable": "ARACATACA COLOMBIAN STEAKHOUSE", "SubCatRNT": "PC", "SecCatastr": "VERACRUZ", "Latitud": 4.601969, "Longitud": -74.071741, "Localidad": "3" }, "geometry": { "type": "Point", "coordinates": [ -8245628.490299999714, 512840.550700001418591 ] } },
{ "type": "Feature", "properties": { "RegNTurism": 25297, "NomEstable": "LA MAR CEBICHERIA PERUANA", "SubCatRNT": "PC", "SecCatastr": "USAQUEN", "Latitud": 4.696066, "Longitud": -74.030172, "Localidad": "1" }, "geometry": { "type": "Point", "coordinates": [ -8241001.0504, 523349.958999998867512 ] } },
{ "type": "Feature", "properties": { "RegNTurism": 25405, "NomEstable": "DON JEDIONDO SOPITAS Y PARRILLA", "SubCatRNT": "PC", "SecCatastr": "VILLA MAYOR ORIENTAL", "Latitud": 4.589972, "Longitud": -74.124156, "Localidad": "15" }, "geometry": { "type": "Point", "coordinates": [ -8251463.3014, 511500.742699999362 ] } },
{ "type": "Feature", "properties": { "RegNTurism": 25664, "NomEstable": "CREPES Y WAFFLES S A  RESTAURANTE ATLANTIS PLAZA", "SubCatRNT": "PC", "SecCatastr": "ESPARTILLAL", "Latitud": 4.666343, "Longitud": -74.05546, "Localidad": "2" }, "geometry": { "type": "Point", "coordinates": [ -8243816.097699999809, 520030.135600000619888 ] } },
{ "type": "Feature", "properties": { "RegNTurism": 25665, "NomEstable": "CREPES Y WAFFLES S A  PLAZA DE LAS AMERICAS", "SubCatRNT": "PC", "SecCatastr": "HIPOTECHO OCCIDENTAL", "Latitud": 4.6173, "Longitud": -74.136128, "Localidad": "8" }, "geometry": { "type": "Point", "coordinates": [ -8252796.0183, 514552.728100001811981 ] } },
{ "type": "Feature", "properties": { "RegNTurism": 25666, "NomEstable": "CREPES Y WAFFLES S A  RESTAURANTE CALLE 73", "SubCatRNT": "PC", "SecCatastr": "PORCIUNCULA", "Latitud": 4.657399, "Longitud": -74.05601, "Localidad": "2" }, "geometry": { "type": "Point", "coordinates": [ -8243877.3234, 519031.189199998975 ] } },
{ "type": "Feature", "properties": { "RegNTurism": 25667, "NomEstable": "CREPES Y WAFFLES S A  RESTAURANTE AVENIDA 19", "SubCatRNT": "PC", "SecCatastr": "SANTA BARBARA OCCIDENTAL", "Latitud": 4.700883, "Longitud": -74.049479, "Localidad": "1" }, "geometry": { "type": "Point", "coordinates": [ -8243150.2958, 523887.993099998682737 ] } },
{ "type": "Feature", "properties": { "RegNTurism": 25668, "NomEstable": "CREPES Y WAFFLES S A  RESTAURANTE SALITRE PLAZA", "SubCatRNT": "PC", "SecCatastr": "SALITRE OCCIDENTAL", "Latitud": 4.652661, "Longitud": -74.109111, "Localidad": "9" }, "geometry": { "type": "Point", "coordinates": [ -8249788.4997, 518502.011900000274181 ] } },
{ "type": "Feature", "properties": { "RegNTurism": 25669, "NomEstable": "CREPES Y WAFFLES S A RESTAURANTE SAN MARTIN", "SubCatRNT": "PC", "SecCatastr": "SAN MARTIN", "Latitud": 4.618827, "Longitud": -74.067316, "Localidad": "3" }, "geometry": { "type": "Point", "coordinates": [ -8245135.901499999687, 514723.266600001603365 ] } },
{ "type": "Feature", "properties": { "RegNTurism": 25702, "NomEstable": "SIPOTE BURRITO", "SubCatRNT": "N", "SecCatastr": "EL RETIRO", "Latitud": 4.665848, "Longitud": -74.052989, "Localidad": "2" }, "geometry": { "type": "Point", "coordinates": [ -8243541.0272, 519974.849199999123812 ] } },
{ "type": "Feature", "properties": { "RegNTurism": 25909, "NomEstable": "CUMBIA HOUSE", "SubCatRNT": "K", "SecCatastr": "CHICO NORTE II SECTOR", "Latitud": 4.680624, "Longitud": -74.047824, "Localidad": "2" }, "geometry": { "type": "Point", "coordinates": [ -8242966.062, 521625.192400000989437 ] } },
{ "type": "Feature", "properties": { "RegNTurism": 26324, "NomEstable": "HAMBURGUESAS EL CORRAL GALERIAS", "SubCatRNT": "PC", "SecCatastr": "GALERIAS", "Latitud": 4.640781, "Longitud": -74.07434, "Localidad": "13" }, "geometry": { "type": "Point", "coordinates": [ -8245917.809599999338, 517175.175200000405312 ] } },
{ "type": "Feature", "properties": { "RegNTurism": 26356, "NomEstable": "CBC 217", "SubCatRNT": "PC", "SecCatastr": "CIUDAD SALITRE NOR-ORIENTAL", "Latitud": 4.647322, "Longitud": -74.102519, "Localidad": "13" }, "geometry": { "type": "Point", "coordinates": [ -8249054.6816, 517905.714400000870228 ] } },
{ "type": "Feature", "properties": { "RegNTurism": 26425, "NomEstable": "LINA'S SANDWICHES", "SubCatRNT": "PC", "SecCatastr": "EL RETIRO", "Latitud": 4.666558, "Longitud": -74.054027, "Localidad": "2" }, "geometry": { "type": "Point", "coordinates": [ -8243656.576799999923, 520054.148800000548363 ] } },
{ "type": "Feature", "properties": { "RegNTurism": 26437, "NomEstable": "CREPES Y WAFFLES S A  RESTAURANTE GALERIAS", "SubCatRNT": "PC", "SecCatastr": "GALERIAS", "Latitud": 4.642651, "Longitud": -74.073819, "Localidad": "13" }, "geometry": { "type": "Point", "coordinates": [ -8245859.8122, 517384.027699999511242 ] } },
{ "type": "Feature", "properties": { "RegNTurism": 26438, "NomEstable": "CREPES Y WAFFLES S A  RESTAURANTE BULEVAR NBA", "SubCatRNT": "PC", "SecCatastr": "LAS VILLAS", "Latitud": 4.711597, "Longitud": -74.070535, "Localidad": "11" }, "geometry": { "type": "Point", "coordinates": [ -8245494.239, 525084.704799998551607 ] } },
{ "type": "Feature", "properties": { "RegNTurism": 26439, "NomEstable": "CREPES Y WAFFLES S A  RESTAURANTE SANTA ANA", "SubCatRNT": "PC", "SecCatastr": "SANTA ANA OCCIDENTAL", "Latitud": 4.689489, "Longitud": -74.036343, "Localidad": "1" }, "geometry": { "type": "Point", "coordinates": [ -8241688.003, 522615.348099999129772 ] } },
{ "type": "Feature", "properties": { "RegNTurism": 26440, "NomEstable": "CREPES Y WAFFLES S.A  RESTAURANTE MALLPLAZA", "SubCatRNT": "PC", "SecCatastr": "PALOQUEMAO", "Latitud": 4.617104, "Longitud": -74.086698, "Localidad": "14" }, "geometry": { "type": "Point", "coordinates": [ -8247293.495899999514, 514530.83839999884367 ] } },
{ "type": "Feature", "properties": { "RegNTurism": 26441, "NomEstable": "CREPES Y WAFFLES S A  RESTAURANTE GRAN ESTACION", "SubCatRNT": "PC", "SecCatastr": "CIUDAD SALITRE NOR-ORIENTAL", "Latitud": 4.649345, "Longitud": -74.100807, "Localidad": "13" }, "geometry": { "type": "Point", "coordinates": [ -8248864.1026, 518131.656899999827147 ] } },
{ "type": "Feature", "properties": { "RegNTurism": 26442, "NomEstable": "CREPES Y WAFFLES S A  RESTAURANTE CENTRO MAYOR", "SubCatRNT": "PC", "SecCatastr": "VILLA MAYOR ORIENTAL", "Latitud": 4.592682, "Longitud": -74.12313, "Localidad": "15" }, "geometry": { "type": "Point", "coordinates": [ -8251349.0876, 511803.389699999243021 ] } },
{ "type": "Feature", "properties": { "RegNTurism": 26443, "NomEstable": "CREPES Y WAFFLES S A  RESTAURANTE SANTAFE", "SubCatRNT": "PC", "SecCatastr": "MIRANDELA", "Latitud": 4.763408, "Longitud": -74.04602, "Localidad": "11" }, "geometry": { "type": "Point", "coordinates": [ -8242765.241699999198, 530872.051399998366833 ] } },
{ "type": "Feature", "properties": { "RegNTurism": 26444, "NomEstable": "CREPES Y WAFFLES S A RESTAURANTE UNICENTRO", "SubCatRNT": "PC", "SecCatastr": "SANTA BARBARA CENTRAL", "Latitud": 4.702757, "Longitud": -74.042769, "Localidad": "1" }, "geometry": { "type": "Point", "coordinates": [ -8242403.342, 524097.310199998319149 ] } },
{ "type": "Feature", "properties": { "RegNTurism": 27201, "NomEstable": "RESTAURANTE WOK", "SubCatRNT": "PC", "SecCatastr": "CIUDAD SALITRE NOR-ORIENTAL", "Latitud": 4.647054, "Longitud": -74.099879, "Localidad": "13" }, "geometry": { "type": "Point", "coordinates": [ -8248760.7981, 517875.782400000840425 ] } },
{ "type": "Feature", "properties": { "RegNTurism": 27239, "NomEstable": "PRESTO BTA CLL 23", "SubCatRNT": "PC", "SecCatastr": "LAS NIEVES", "Latitud": 4.609203, "Longitud": -74.070692, "Localidad": "3" }, "geometry": { "type": "Point", "coordinates": [ -8245511.716099999845, 513648.444600000977516 ] } },
{ "type": "Feature", "properties": { "RegNTurism": 27240, "NomEstable": "PRESTO BTA PALMA REAL", "SubCatRNT": "PC", "SecCatastr": "SAMPER", "Latitud": 4.615901, "Longitud": -74.069613, "Localidad": "3" }, "geometry": { "type": "Point", "coordinates": [ -8245391.602399999276, 514396.485199999064207 ] } },
{ "type": "Feature", "properties": { "RegNTurism": 27241, "NomEstable": "PRESTO BTA CRA 7", "SubCatRNT": "N", "SecCatastr": "LA CATEDRAL", "Latitud": 4.600578, "Longitud": -74.073934, "Localidad": "17" }, "geometry": { "type": "Point", "coordinates": [ -8245872.6139, 512685.204700000584126 ] } },
{ "type": "Feature", "properties": { "RegNTurism": 27722, "NomEstable": "RESTAURANTE WOK", "SubCatRNT": "PC", "SecCatastr": "SANTA ANA OCCIDENTAL", "Latitud": 4.690479, "Longitud": -74.036386, "Localidad": "1" }, "geometry": { "type": "Point", "coordinates": [ -8241692.789699999616, 522725.924699999392033 ] } },
{ "type": "Feature", "properties": { "RegNTurism": 28132, "NomEstable": "CREPES Y WAFFLES S A  RESTAURANTE AEROPUERTO NUEVO TERMINAL", "SubCatRNT": "PC", "SecCatastr": "AEROPUERTO EL DORADO", "Latitud": 4.699297, "Longitud": -74.142096, "Localidad": "9" }, "geometry": { "type": "Point", "coordinates": [ -8253460.373099999502, 523710.844599999487 ] } },
{ "type": "Feature", "properties": { "RegNTurism": 29564, "NomEstable": "CREPES Y WAFFLES S A  RESTAURANTE GRAN ESTACION 2", "SubCatRNT": "PC", "SecCatastr": "CIUDAD SALITRE NOR-ORIENTAL", "Latitud": 4.64571, "Longitud": -74.102249, "Localidad": "13" }, "geometry": { "type": "Point", "coordinates": [ -8249024.62529999949, 517725.675700001418591 ] } },
{ "type": "Feature", "properties": { "RegNTurism": 29801, "NomEstable": "CBC 232", "SubCatRNT": "PC", "SecCatastr": "CHAPINERO NORTE", "Latitud": 4.652766, "Longitud": -74.06142, "Localidad": "2" }, "geometry": { "type": "Point", "coordinates": [ -8244479.561799999326, 518513.739100001752377 ] } },
{ "type": "Feature", "properties": { "RegNTurism": 29812, "NomEstable": "DON JEDIONDO SOPITAS Y PARRILLA", "SubCatRNT": "PC", "SecCatastr": "LA CASTELLANA", "Latitud": 4.687797, "Longitud": -74.064654, "Localidad": "12" }, "geometry": { "type": "Point", "coordinates": [ -8244839.569099999964, 522426.363099999725819 ] } },
{ "type": "Feature", "properties": { "RegNTurism": 29905, "NomEstable": "LA BONGA DEL SINU", "SubCatRNT": "PC", "SecCatastr": "SAN PATRICIO", "Latitud": 4.697199, "Longitud": -74.046205, "Localidad": "1" }, "geometry": { "type": "Point", "coordinates": [ -8242785.835799999535, 523476.50899999961 ] } },
{ "type": "Feature", "properties": { "RegNTurism": 29954, "NomEstable": "DINER UNICENTRO", "SubCatRNT": "PC", "SecCatastr": "SANTA BARBARA CENTRAL", "Latitud": 4.702757, "Longitud": -74.042769, "Localidad": "1" }, "geometry": { "type": "Point", "coordinates": [ -8242403.342, 524097.310199998319149 ] } },
{ "type": "Feature", "properties": { "RegNTurism": 29956, "NomEstable": "CAFE ILLY UNICENTRO", "SubCatRNT": "L", "SecCatastr": "SANTA BARBARA CENTRAL", "Latitud": 4.701568, "Longitud": -74.039458, "Localidad": "1" }, "geometry": { "type": "Point", "coordinates": [ -8242034.763199999928, 523964.504299998283386 ] } },
{ "type": "Feature", "properties": { "RegNTurism": 30002, "NomEstable": "EL CARNAL", "SubCatRNT": "O", "SecCatastr": "USAQUEN", "Latitud": 4.692227, "Longitud": -74.03325, "Localidad": "1" }, "geometry": { "type": "Point", "coordinates": [ -8241343.6918, 522921.165199998766184 ] } },
{ "type": "Feature", "properties": { "RegNTurism": 30006, "NomEstable": "EL CARNAL", "SubCatRNT": "O", "SecCatastr": "VILLA MAYOR ORIENTAL", "Latitud": 4.589972, "Longitud": -74.124156, "Localidad": "15" }, "geometry": { "type": "Point", "coordinates": [ -8251463.3014, 511500.742699999362 ] } },
{ "type": "Feature", "properties": { "RegNTurism": 30007, "NomEstable": "EL CARNAL", "SubCatRNT": "O", "SecCatastr": "HIPOTECHO OCCIDENTAL", "Latitud": 4.6173, "Longitud": -74.136128, "Localidad": "8" }, "geometry": { "type": "Point", "coordinates": [ -8252796.0183, 514552.728100001811981 ] } },
{ "type": "Feature", "properties": { "RegNTurism": 30008, "NomEstable": "EL CARNAL", "SubCatRNT": "O", "SecCatastr": "CIUDAD SALITRE NOR-ORIENTAL", "Latitud": 4.647054, "Longitud": -74.099879, "Localidad": "13" }, "geometry": { "type": "Point", "coordinates": [ -8248760.7981, 517875.782400000840425 ] } },
{ "type": "Feature", "properties": { "RegNTurism": 30009, "NomEstable": "EL CARNAL", "SubCatRNT": "O", "SecCatastr": "SANTA BARBARA CENTRAL", "Latitud": 4.702757, "Longitud": -74.042769, "Localidad": "1" }, "geometry": { "type": "Point", "coordinates": [ -8242403.342, 524097.310199998319149 ] } },
{ "type": "Feature", "properties": { "RegNTurism": 30010, "NomEstable": "EL CARNAL", "SubCatRNT": "O", "SecCatastr": "ESPARTILLAL", "Latitud": 4.667039, "Longitud": -74.055127, "Localidad": "2" }, "geometry": { "type": "Point", "coordinates": [ -8243779.0283, 520107.871599998325109 ] } },
{ "type": "Feature", "properties": { "RegNTurism": 30022, "NomEstable": "NUEVE S A S", "SubCatRNT": "PC", "SecCatastr": "QUINTA CAMACHO", "Latitud": 4.65541, "Longitud": -74.059355, "Localidad": "2" }, "geometry": { "type": "Point", "coordinates": [ -8244249.6871, 518809.041499998420477 ] } },
{ "type": "Feature", "properties": { "RegNTurism": 30217, "NomEstable": "DON JEDIONDO SOPITAS Y PARILLA", "SubCatRNT": "PC", "SecCatastr": "SANTA BARBARA CENTRAL", "Latitud": 4.702757, "Longitud": -74.042769, "Localidad": "1" }, "geometry": { "type": "Point", "coordinates": [ -8242403.342, 524097.310199998319149 ] } },
{ "type": "Feature", "properties": { "RegNTurism": 30728, "NomEstable": "LA POPULAR DE ANDRES CONTENEDORES", "SubCatRNT": "PC", "SecCatastr": "CHICO NORTE", "Latitud": 4.677907, "Longitud": -74.049582, "Localidad": "2" }, "geometry": { "type": "Point", "coordinates": [ -8243161.7617, 521321.725900001823902 ] } },
{ "type": "Feature", "properties": { "RegNTurism": 31033, "NomEstable": "BAGATELLE", "SubCatRNT": "PC", "SecCatastr": "EMAUS", "Latitud": 4.652692, "Longitud": -74.054375, "Localidad": "2" }, "geometry": { "type": "Point", "coordinates": [ -8243695.31599999964, 518505.474199999123812 ] } },
{ "type": "Feature", "properties": { "RegNTurism": 31413, "NomEstable": "ANDRES EXPRES CASETA DE LUXE", "SubCatRNT": "PC", "SecCatastr": "LA CASTELLANA", "Latitud": 4.688206, "Longitud": -74.064794, "Localidad": "12" }, "geometry": { "type": "Point", "coordinates": [ -8244855.153799999505, 522472.0456000007689 ] } },
{ "type": "Feature", "properties": { "RegNTurism": 31729, "NomEstable": "CREPES Y WAFFLES S A  RESTAURANTE ROSALES", "SubCatRNT": "PC", "SecCatastr": "LAS ACACIAS", "Latitud": 4.652304, "Longitud": -74.054641, "Localidad": "2" }, "geometry": { "type": "Point", "coordinates": [ -8243724.92699999921, 518462.139499999582767 ] } },
{ "type": "Feature", "properties": { "RegNTurism": 32076, "NomEstable": "CIELO BASICO S A S", "SubCatRNT": "PC", "SecCatastr": "EMAUS", "Latitud": 4.651557, "Longitud": -74.054539, "Localidad": "2" }, "geometry": { "type": "Point", "coordinates": [ -8243713.572399999946, 518378.708999998867512 ] } },
{ "type": "Feature", "properties": { "RegNTurism": 32193, "NomEstable": "BARRA BTA AEROP. EL NUEVO DORADO", "SubCatRNT": "K", "SecCatastr": "AEROPUERTO EL DORADO", "Latitud": 4.687388, "Longitud": -74.132858, "Localidad": "9" }, "geometry": { "type": "Point", "coordinates": [ -8252432.003599999472, 522380.680599998682737 ] } },
{ "type": "Feature", "properties": { "RegNTurism": 32252, "NomEstable": "KOKORIKO CENTRAL DOMICILIOS USAQUEN", "SubCatRNT": "PC", "SecCatastr": "SANTA BARBARA CENTRAL", "Latitud": 4.696892, "Longitud": -74.033796, "Localidad": "1" }, "geometry": { "type": "Point", "coordinates": [ -8241404.4722, 523442.218699999153614 ] } },
{ "type": "Feature", "properties": { "RegNTurism": 32254, "NomEstable": "ANDRES EXPRES CASETA DE LUXE", "SubCatRNT": "PC", "SecCatastr": "CEDRITOS", "Latitud": 4.715299, "Longitud": -74.028836, "Localidad": "1" }, "geometry": { "type": "Point", "coordinates": [ -8240852.3275, 525498.208000000566244 ] } },
{ "type": "Feature", "properties": { "RegNTurism": 32842, "NomEstable": "KOKORICO NATURAL ROTISSERIE", "SubCatRNT": "PC", "SecCatastr": "AEROPUERTO EL DORADO", "Latitud": 4.687388, "Longitud": -74.132858, "Localidad": "9" }, "geometry": { "type": "Point", "coordinates": [ -8252432.003599999472, 522380.680599998682737 ] } },
{ "type": "Feature", "properties": { "RegNTurism": 32844, "NomEstable": "KOKORIKO SALITRE PLAZA", "SubCatRNT": "PC", "SecCatastr": "SALITRE OCCIDENTAL", "Latitud": 4.653509, "Longitud": -74.110812, "Localidad": "9" }, "geometry": { "type": "Point", "coordinates": [ -8249977.8541, 518596.723000001162291 ] } },
{ "type": "Feature", "properties": { "RegNTurism": 32847, "NomEstable": "KOKORIKO CALLE 71", "SubCatRNT": "PC", "SecCatastr": "QUINTA CAMACHO", "Latitud": 4.655243, "Longitud": -74.057678, "Localidad": "2" }, "geometry": { "type": "Point", "coordinates": [ -8244063.0043, 518790.389600001275539 ] } },
{ "type": "Feature", "properties": { "RegNTurism": 32849, "NomEstable": "KOKORICO UNICENTRO", "SubCatRNT": "PC", "SecCatastr": "SANTA BARBARA CENTRAL", "Latitud": 4.702757, "Longitud": -74.042769, "Localidad": "1" }, "geometry": { "type": "Point", "coordinates": [ -8242403.342, 524097.310199998319149 ] } },
{ "type": "Feature", "properties": { "RegNTurism": 34250, "NomEstable": "BOGOTA BEER COMPANY SAS", "SubCatRNT": "K", "SecCatastr": "VILLA MAYOR ORIENTAL", "Latitud": 4.592682, "Longitud": -74.12313, "Localidad": "15" }, "geometry": { "type": "Point", "coordinates": [ -8251349.0876, 511803.389699999243021 ] } },
{ "type": "Feature", "properties": { "RegNTurism": 34251, "NomEstable": "BOGOTA BEER COMPANY S A", "SubCatRNT": "K", "SecCatastr": "SAN MARTIN", "Latitud": 4.618827, "Longitud": -74.067316, "Localidad": "3" }, "geometry": { "type": "Point", "coordinates": [ -8245135.901499999687, 514723.266600001603365 ] } },
{ "type": "Feature", "properties": { "RegNTurism": 34252, "NomEstable": "BOGOTA BEER COMPANY SA", "SubCatRNT": "K", "SecCatastr": "LA CATEDRAL", "Latitud": 4.600287, "Longitud": -74.070585, "Localidad": "17" }, "geometry": { "type": "Point", "coordinates": [ -8245499.805, 512652.706000000238419 ] } },
{ "type": "Feature", "properties": { "RegNTurism": 34393, "NomEstable": "LA PLAZA DE ANDRES", "SubCatRNT": "PC", "SecCatastr": "USAQUEN", "Latitud": 4.693531, "Longitud": -74.033097, "Localidad": "1" }, "geometry": { "type": "Point", "coordinates": [ -8241326.6599, 523066.814100001007318 ] } },
{ "type": "Feature", "properties": { "RegNTurism": 34421, "NomEstable": "EL CARNAL", "SubCatRNT": "O", "SecCatastr": "SAN MARTIN", "Latitud": 4.618537, "Longitud": -74.067862, "Localidad": "3" }, "geometry": { "type": "Point", "coordinates": [ -8245196.682, 514690.878800000995398 ] } },
{ "type": "Feature", "properties": { "RegNTurism": 34467, "NomEstable": "ANDRES EXPRES CASETA DE LUXE", "SubCatRNT": "PC", "SecCatastr": "LOS ANDES", "Latitud": 4.686346, "Longitud": -74.075975, "Localidad": "12" }, "geometry": { "type": "Point", "coordinates": [ -8246099.81699999981, 522264.296599999070168 ] } },
{ "type": "Feature", "properties": { "RegNTurism": 34539, "NomEstable": "PRESTO BTA AEROP NUEVO DORADO", "SubCatRNT": "PC", "SecCatastr": "AEROPUERTO EL DORADO", "Latitud": 4.699316, "Longitud": -74.14194, "Localidad": "9" }, "geometry": { "type": "Point", "coordinates": [ -8253443.0072, 523712.96680000051856 ] } },
{ "type": "Feature", "properties": { "RegNTurism": 34742, "NomEstable": "CAFETERIA AVENIDA 116", "SubCatRNT": "O", "SecCatastr": "SANTA BARBARA OCCIDENTAL", "Latitud": 4.698654, "Longitud": -74.049486, "Localidad": "1" }, "geometry": { "type": "Point", "coordinates": [ -8243151.07499999925, 523639.02479999884963 ] } },
{ "type": "Feature", "properties": { "RegNTurism": 35883, "NomEstable": "LA PLAZA DE ANDRES GRAN ESTACION", "SubCatRNT": "PC", "SecCatastr": "CIUDAD SALITRE NOR-ORIENTAL", "Latitud": 4.647054, "Longitud": -74.099879, "Localidad": "13" }, "geometry": { "type": "Point", "coordinates": [ -8248760.7981, 517875.782400000840425 ] } },
{ "type": "Feature", "properties": { "RegNTurism": 36271, "NomEstable": "CREPES Y WAFFLES S A  RESTAURANTE AVENIDA CHILE", "SubCatRNT": "PC", "SecCatastr": "PORCIUNCULA", "Latitud": 4.656668, "Longitud": -74.057815, "Localidad": "2" }, "geometry": { "type": "Point", "coordinates": [ -8244078.2551, 518949.545099999755621 ] } },
{ "type": "Feature", "properties": { "RegNTurism": 36873, "NomEstable": "BLUE RIBBON", "SubCatRNT": "PC", "SecCatastr": "CHICO NORTE", "Latitud": 4.675994, "Longitud": -74.050615, "Localidad": "2" }, "geometry": { "type": "Point", "coordinates": [ -8243276.754699999467, 521108.0603 ] } },
{ "type": "Feature", "properties": { "RegNTurism": 37241, "NomEstable": "PRIMI", "SubCatRNT": "PC", "SecCatastr": "LA CABRERA", "Latitud": 4.670394, "Longitud": -74.053266, "Localidad": "2" }, "geometry": { "type": "Point", "coordinates": [ -8243571.8627, 520482.59180000051856 ] } },
{ "type": "Feature", "properties": { "RegNTurism": 37968, "NomEstable": "ANDRES EXPRES CASETA DE LUXE", "SubCatRNT": "PC", "SecCatastr": "SANTA BARBARA OCCIDENTAL", "Latitud": 4.697894, "Longitud": -74.047151, "Localidad": "1" }, "geometry": { "type": "Point", "coordinates": [ -8242891.14399999939, 523554.136799998581409 ] } },
{ "type": "Feature", "properties": { "RegNTurism": 37969, "NomEstable": "ANDRES EXPRES CASA DE LOS ANDES", "SubCatRNT": "PC", "SecCatastr": "LAS AGUAS", "Latitud": 4.603307, "Longitud": -74.066455, "Localidad": "3" }, "geometry": { "type": "Point", "coordinates": [ -8245040.0555, 512989.978100001811981 ] } },
{ "type": "Feature", "properties": { "RegNTurism": 37970, "NomEstable": "ANDRES EXPRES PARADERO", "SubCatRNT": "PC", "SecCatastr": "TORCA I", "Latitud": 4.806918, "Longitud": -74.035453, "Localidad": "1" }, "geometry": { "type": "Point", "coordinates": [ -8241588.9286, 535732.503699999302626 ] } },
{ "type": "Feature", "properties": { "RegNTurism": 37977, "NomEstable": "LA PLAZA DE ANDRES SANTA FE", "SubCatRNT": "PC", "SecCatastr": "MIRANDELA", "Latitud": 4.761992, "Longitud": -74.048237, "Localidad": "11" }, "geometry": { "type": "Point", "coordinates": [ -8243012.037, 530713.876899998635054 ] } },
{ "type": "Feature", "properties": { "RegNTurism": 37995, "NomEstable": "BARRA BTA EXPRESS T1 AEROP . MEZANINE", "SubCatRNT": "N", "SecCatastr": "AEROPUERTO EL DORADO", "Latitud": 4.687388, "Longitud": -74.132858, "Localidad": "9" }, "geometry": { "type": "Point", "coordinates": [ -8252432.003599999472, 522380.680599998682737 ] } },
{ "type": "Feature", "properties": { "RegNTurism": 38999, "NomEstable": "LA CERVECERIA D C", "SubCatRNT": "PC", "SecCatastr": "EL RETIRO", "Latitud": 4.667756, "Longitud": -74.0538, "Localidad": "2" }, "geometry": { "type": "Point", "coordinates": [ -8243631.30729999952, 520187.953299999237061 ] } },
{ "type": "Feature", "properties": { "RegNTurism": 39476, "NomEstable": "ABASTO QUINTA CAMACHO", "SubCatRNT": "PC", "SecCatastr": "QUINTA CAMACHO", "Latitud": 4.653283, "Longitud": -74.058994, "Localidad": "2" }, "geometry": { "type": "Point", "coordinates": [ -8244209.5007, 518571.481600001454353 ] } },
{ "type": "Feature", "properties": { "RegNTurism": 42614, "NomEstable": "PRESTO BTA GRAN ESTACION 2", "SubCatRNT": "PC", "SecCatastr": "CIUDAD SALITRE NOR-ORIENTAL", "Latitud": 4.647054, "Longitud": -74.099879, "Localidad": "13" }, "geometry": { "type": "Point", "coordinates": [ -8248760.7981, 517875.782400000840425 ] } },
{ "type": "Feature", "properties": { "RegNTurism": 43317, "NomEstable": "EL CARNAL", "SubCatRNT": "O", "SecCatastr": "SANTA BARBARA CENTRAL", "Latitud": 4.702757, "Longitud": -74.042769, "Localidad": "1" }, "geometry": { "type": "Point", "coordinates": [ -8242403.342, 524097.310199998319149 ] } },
{ "type": "Feature", "properties": { "RegNTurism": 43941, "NomEstable": "KAREN S PIZZA", "SubCatRNT": "PC", "SecCatastr": "CHICO NORTE", "Latitud": 4.678556, "Longitud": -74.04833, "Localidad": "2" }, "geometry": { "type": "Point", "coordinates": [ -8243022.389699999243, 521394.213799998164177 ] } },
{ "type": "Feature", "properties": { "RegNTurism": 44402, "NomEstable": "TERIYAKI 85", "SubCatRNT": "PC", "SecCatastr": "LA CABRERA", "Latitud": 4.668741, "Longitud": -74.052988, "Localidad": "2" }, "geometry": { "type": "Point", "coordinates": [ -8243540.91589999944, 520297.9679000005126 ] } },
{ "type": "Feature", "properties": { "RegNTurism": 44407, "NomEstable": "ZATAR", "SubCatRNT": "PC", "SecCatastr": "ANTIGUO COUNTRY", "Latitud": 4.671429, "Longitud": -74.057966, "Localidad": "2" }, "geometry": { "type": "Point", "coordinates": [ -8244095.0643, 520598.191399998962879 ] } },
{ "type": "Feature", "properties": { "RegNTurism": 44603, "NomEstable": "SEMOLINA ANDINO", "SubCatRNT": "PC", "SecCatastr": "EL RETIRO", "Latitud": 4.666558, "Longitud": -74.054027, "Localidad": "2" }, "geometry": { "type": "Point", "coordinates": [ -8243656.576799999923, 520054.148800000548363 ] } },
{ "type": "Feature", "properties": { "RegNTurism": 44604, "NomEstable": "GAMBERRO 9", "SubCatRNT": "PC", "SecCatastr": "EL CHICO", "Latitud": 4.672303, "Longitud": -74.048992, "Localidad": "2" }, "geometry": { "type": "Point", "coordinates": [ -8243096.0832, 520695.809000000357628 ] } },
{ "type": "Feature", "properties": { "RegNTurism": 46895, "NomEstable": "REVELLION", "SubCatRNT": "K", "SecCatastr": "VERACRUZ", "Latitud": 4.601134, "Longitud": -74.070338, "Localidad": "3" }, "geometry": { "type": "Point", "coordinates": [ -8245472.309, 512747.298399999738 ] } },
{ "type": "Feature", "properties": { "RegNTurism": 47525, "NomEstable": "REPUBLIK MUSEO", "SubCatRNT": "PC", "SecCatastr": "SAN DIEGO", "Latitud": 4.614642, "Longitud": -74.068754, "Localidad": "3" }, "geometry": { "type": "Point", "coordinates": [ -8245295.979, 514255.878100000321865 ] } },
{ "type": "Feature", "properties": { "RegNTurism": 48819, "NomEstable": "RESTAURANTE CARBON DE PALO", "SubCatRNT": "PC", "SecCatastr": "SAN PATRICIO", "Latitud": 4.697697, "Longitud": -74.050013, "Localidad": "1" }, "geometry": { "type": "Point", "coordinates": [ -8243209.740399999544, 523532.132899999619 ] } },
{ "type": "Feature", "properties": { "RegNTurism": 48886, "NomEstable": "PRESTO BTA SANTAFE", "SubCatRNT": "PC", "SecCatastr": "MIRANDELA", "Latitud": 4.763319, "Longitud": -74.045437, "Localidad": "11" }, "geometry": { "type": "Point", "coordinates": [ -8242700.342399999499, 530862.1096 ] } },
{ "type": "Feature", "properties": { "RegNTurism": 48887, "NomEstable": "PRESTO BTA ISERRA 1", "SubCatRNT": "N", "SecCatastr": "LA CASTELLANA", "Latitud": 4.687704, "Longitud": -74.063903, "Localidad": "12" }, "geometry": { "type": "Point", "coordinates": [ -8244755.9681, 522415.975699998438358 ] } },
{ "type": "Feature", "properties": { "RegNTurism": 48889, "NomEstable": "PRESTO BTA CENTRO MAYOR", "SubCatRNT": "N", "SecCatastr": "VILLA MAYOR ORIENTAL", "Latitud": 4.589972, "Longitud": -74.124156, "Localidad": "15" }, "geometry": { "type": "Point", "coordinates": [ -8251463.3014, 511500.742699999362 ] } },
{ "type": "Feature", "properties": { "RegNTurism": 48891, "NomEstable": "PRESTO BTA PLAZA DE LAS AMERICAS", "SubCatRNT": "PC", "SecCatastr": "HIPOTECHO OCCIDENTAL", "Latitud": 4.6173, "Longitud": -74.136128, "Localidad": "8" }, "geometry": { "type": "Point", "coordinates": [ -8252796.0183, 514552.728100001811981 ] } },
{ "type": "Feature", "properties": { "RegNTurism": 49255, "NomEstable": "CAFETERIA CUBANA SANTA FE", "SubCatRNT": "O", "SecCatastr": "MIRANDELA", "Latitud": 4.763408, "Longitud": -74.04602, "Localidad": "11" }, "geometry": { "type": "Point", "coordinates": [ -8242765.241699999198, 530872.051399998366833 ] } },
{ "type": "Feature", "properties": { "RegNTurism": 49257, "NomEstable": "SANDWICH LAS AMERICAS", "SubCatRNT": "O", "SecCatastr": "HIPOTECHO OCCIDENTAL", "Latitud": 4.61837, "Longitud": -74.137309, "Localidad": "8" }, "geometry": { "type": "Point", "coordinates": [ -8252927.4867, 514672.227899998426437 ] } },
{ "type": "Feature", "properties": { "RegNTurism": 49416, "NomEstable": "M COCINA  ZONA 6", "SubCatRNT": "PC", "SecCatastr": "QUINTA CAMACHO", "Latitud": 4.651071, "Longitud": -74.057911, "Localidad": "2" }, "geometry": { "type": "Point", "coordinates": [ -8244088.9417, 518324.428899999707937 ] } },
{ "type": "Feature", "properties": { "RegNTurism": 49467, "NomEstable": "BOGOTA BEER COMPANY SAS", "SubCatRNT": "K", "SecCatastr": "HIPOTECHO OCCIDENTAL", "Latitud": 4.61837, "Longitud": -74.137309, "Localidad": "8" }, "geometry": { "type": "Point", "coordinates": [ -8252927.4867, 514672.227899998426437 ] } },
{ "type": "Feature", "properties": { "RegNTurism": 49469, "NomEstable": "BOGOTA BEER COMPANY S A", "SubCatRNT": "K", "SecCatastr": "AEROPUERTO EL DORADO", "Latitud": 4.699297, "Longitud": -74.142096, "Localidad": "9" }, "geometry": { "type": "Point", "coordinates": [ -8253460.373099999502, 523710.844599999487 ] } },
{ "type": "Feature", "properties": { "RegNTurism": 49471, "NomEstable": "BOGOTA BEER COMPANY", "SubCatRNT": "K", "SecCatastr": "SANTA MONICA", "Latitud": 4.700642, "Longitud": -74.114228, "Localidad": "10" }, "geometry": { "type": "Point", "coordinates": [ -8250358.1215, 523861.074499998241663 ] } },
{ "type": "Feature", "properties": { "RegNTurism": 49503, "NomEstable": "BARRA BTA C.C. CENTRO 93", "SubCatRNT": "N", "SecCatastr": "CHICO NORTE", "Latitud": 4.677373, "Longitud": -74.052579, "Localidad": "2" }, "geometry": { "type": "Point", "coordinates": [ -8243495.386199999601, 521262.082699999213219 ] } },
{ "type": "Feature", "properties": { "RegNTurism": 49505, "NomEstable": "BARRA BTA CLINICA NOGALES", "SubCatRNT": "N", "SecCatastr": "CHICO NORTE III SECTOR", "Latitud": 4.683207, "Longitud": -74.057016, "Localidad": "2" }, "geometry": { "type": "Point", "coordinates": [ -8243989.310799999163, 521913.693399999290705 ] } },
{ "type": "Feature", "properties": { "RegNTurism": 49508, "NomEstable": "BARRA BTA C.C. SALITRE PLAZA PISO 2", "SubCatRNT": "O", "SecCatastr": "SALITRE OCCIDENTAL", "Latitud": 4.652475, "Longitud": -74.109927, "Localidad": "9" }, "geometry": { "type": "Point", "coordinates": [ -8249879.3364, 518481.238000001758337 ] } },
{ "type": "Feature", "properties": { "RegNTurism": 49514, "NomEstable": "BARRA BTA C.C. CAFAM FLORESTA", "SubCatRNT": "N", "SecCatastr": "LOS ANDES", "Latitud": 4.686346, "Longitud": -74.075975, "Localidad": "12" }, "geometry": { "type": "Point", "coordinates": [ -8246099.81699999981, 522264.296599999070168 ] } },
{ "type": "Feature", "properties": { "RegNTurism": 49516, "NomEstable": "BARRA BTA C.C. CENTRO MAYOR", "SubCatRNT": "N", "SecCatastr": "VILLA MAYOR ORIENTAL", "Latitud": 4.589972, "Longitud": -74.124156, "Localidad": "15" }, "geometry": { "type": "Point", "coordinates": [ -8251463.3014, 511500.742699999362 ] } },
{ "type": "Feature", "properties": { "RegNTurism": 49520, "NomEstable": "BARRA BTA C.C. GALERIAS", "SubCatRNT": "N", "SecCatastr": "GALERIAS", "Latitud": 4.643333, "Longitud": -74.074954, "Localidad": "13" }, "geometry": { "type": "Point", "coordinates": [ -8245986.1598, 517460.197500001639128 ] } },
{ "type": "Feature", "properties": { "RegNTurism": 49521, "NomEstable": "BARRA BTA C.C. BULEVAR DOMO CENTRAL", "SubCatRNT": "N", "SecCatastr": "LAS VILLAS", "Latitud": 4.711597, "Longitud": -74.070535, "Localidad": "11" }, "geometry": { "type": "Point", "coordinates": [ -8245494.239, 525084.704799998551607 ] } },
{ "type": "Feature", "properties": { "RegNTurism": 49522, "NomEstable": "BARRA BTA C.C. SANTA FE PISO 3", "SubCatRNT": "N", "SecCatastr": "MIRANDELA", "Latitud": 4.763408, "Longitud": -74.04602, "Localidad": "11" }, "geometry": { "type": "Point", "coordinates": [ -8242765.241699999198, 530872.051399998366833 ] } },
{ "type": "Feature", "properties": { "RegNTurism": 49525, "NomEstable": "BOGOTA BEER COMPANY S A", "SubCatRNT": "K", "SecCatastr": "SANTA ROSA", "Latitud": 4.696091, "Longitud": -74.086719, "Localidad": "10" }, "geometry": { "type": "Point", "coordinates": [ -8247295.833599999547, 523352.751400001347065 ] } },
{ "type": "Feature", "properties": { "RegNTurism": 49526, "NomEstable": "BARRA BTA AEROP. PUENTE AEREO", "SubCatRNT": "N", "SecCatastr": "LOS ALAMOS", "Latitud": 4.682456, "Longitud": -74.121395, "Localidad": "10" }, "geometry": { "type": "Point", "coordinates": [ -8251155.9483, 521829.812399998307228 ] } },
{ "type": "Feature", "properties": { "RegNTurism": 49536, "NomEstable": "BARRA BTA C.C. BAZAR ALSACIA", "SubCatRNT": "N", "SecCatastr": "VILLA ALSACIA", "Latitud": 4.645372, "Longitud": -74.129601, "Localidad": "8" }, "geometry": { "type": "Point", "coordinates": [ -8252069.436, 517687.925700001418591 ] } },
{ "type": "Feature", "properties": { "RegNTurism": 49541, "NomEstable": "BARRA BTA EXPRESS SAN MARTIN", "SubCatRNT": "N", "SecCatastr": "SAN MARTIN", "Latitud": 4.618537, "Longitud": -74.067862, "Localidad": "3" }, "geometry": { "type": "Point", "coordinates": [ -8245196.682, 514690.878800000995398 ] } },
{ "type": "Feature", "properties": { "RegNTurism": 49544, "NomEstable": "BARRA BTA C.C. GRAN ESTACION", "SubCatRNT": "N", "SecCatastr": "CIUDAD SALITRE NOR-ORIENTAL", "Latitud": 4.647054, "Longitud": -74.099879, "Localidad": "13" }, "geometry": { "type": "Point", "coordinates": [ -8248760.7981, 517875.782400000840425 ] } },
{ "type": "Feature", "properties": { "RegNTurism": 49549, "NomEstable": "BARRA BTA C.C. BULEVAR NIZA 1ER PISO", "SubCatRNT": "N", "SecCatastr": "LAS VILLAS", "Latitud": 4.711597, "Longitud": -74.070535, "Localidad": "11" }, "geometry": { "type": "Point", "coordinates": [ -8245494.239, 525084.704799998551607 ] } },
{ "type": "Feature", "properties": { "RegNTurism": 49567, "NomEstable": "BARRA BTA C.C. SALITRE PLAZA", "SubCatRNT": "N", "SecCatastr": "SALITRE OCCIDENTAL", "Latitud": 4.652661, "Longitud": -74.109111, "Localidad": "9" }, "geometry": { "type": "Point", "coordinates": [ -8249788.4997, 518502.011900000274181 ] } },
{ "type": "Feature", "properties": { "RegNTurism": 49601, "NomEstable": "SANDWIICH MUNDO AVENTURA", "SubCatRNT": "PC", "SecCatastr": "HIPOTECHO OCCIDENTAL", "Latitud": 4.62049, "Longitud": -74.137264, "Localidad": "8" }, "geometry": { "type": "Point", "coordinates": [ -8252922.477299999446, 514908.994300000369549 ] } },
{ "type": "Feature", "properties": { "RegNTurism": 49602, "NomEstable": "BARRA BTA C.C. CEDRITOS", "SubCatRNT": "N", "SecCatastr": "LAS MARGARITAS", "Latitud": 4.732341, "Longitud": -74.041954, "Localidad": "1" }, "geometry": { "type": "Point", "coordinates": [ -8242312.616599999368, 527401.780799999833107 ] } },
{ "type": "Feature", "properties": { "RegNTurism": 49606, "NomEstable": "BARRA BTA C. C HACIENDA SANTA BARBARA 2", "SubCatRNT": "N", "SecCatastr": "USAQUEN", "Latitud": 4.692227, "Longitud": -74.03325, "Localidad": "1" }, "geometry": { "type": "Point", "coordinates": [ -8241343.6918, 522921.165199998766184 ] } },
{ "type": "Feature", "properties": { "RegNTurism": 49607, "NomEstable": "BARRA BTA C.C. SAN RAFAEL LOCAL 12", "SubCatRNT": "N", "SecCatastr": "SAN JOSE DEL PRADO", "Latitud": 4.725212, "Longitud": -74.061723, "Localidad": "11" }, "geometry": { "type": "Point", "coordinates": [ -8244513.2916, 526605.473600000143051 ] } },
{ "type": "Feature", "properties": { "RegNTurism": 49609, "NomEstable": "BARRA BTA C.C. ISERRA 1", "SubCatRNT": "N", "SecCatastr": "LA CASTELLANA", "Latitud": 4.687797, "Longitud": -74.064654, "Localidad": "12" }, "geometry": { "type": "Point", "coordinates": [ -8244839.569099999964, 522426.363099999725819 ] } },
{ "type": "Feature", "properties": { "RegNTurism": 49634, "NomEstable": "BARRA BTA C.C.CENTRO DE ALTA TECNOLOGIA", "SubCatRNT": "N", "SecCatastr": "LAGO GAITAN", "Latitud": 4.664008, "Longitud": -74.058486, "Localidad": "2" }, "geometry": { "type": "Point", "coordinates": [ -8244152.9504, 519769.340500000864267 ] } },
{ "type": "Feature", "properties": { "RegNTurism": 52062, "NomEstable": "BARRA BTA EDIF NUEVO HORIZONTE", "SubCatRNT": "N", "SecCatastr": "LA CALLEJA", "Latitud": 4.706377, "Longitud": -74.05128, "Localidad": "1" }, "geometry": { "type": "Point", "coordinates": [ -8243350.782199999318, 524501.649000000208616 ] } },
{ "type": "Feature", "properties": { "RegNTurism": 52066, "NomEstable": "BARRA BTA HOMECENTER CALLE 8", "SubCatRNT": "N", "SecCatastr": "LA CASTELLANA", "Latitud": 4.687797, "Longitud": -74.064654, "Localidad": "12" }, "geometry": { "type": "Point", "coordinates": [ -8244839.569099999964, 522426.363099999725819 ] } },
{ "type": "Feature", "properties": { "RegNTurism": 52074, "NomEstable": "BARRA BTA EXITO CALLE 8", "SubCatRNT": "N", "SecCatastr": "LAS FERIAS", "Latitud": 4.685033, "Longitud": -74.080614, "Localidad": "10" }, "geometry": { "type": "Point", "coordinates": [ -8246616.228099999949, 522117.643899999558926 ] } },
{ "type": "Feature", "properties": { "RegNTurism": 52075, "NomEstable": "BARRA BTA EXITO CHAPINERO", "SubCatRNT": "N", "SecCatastr": "CHAPINERO CENTRAL", "Latitud": 4.640364, "Longitud": -74.065862, "Localidad": "2" }, "geometry": { "type": "Point", "coordinates": [ -8244974.043, 517128.602299999445677 ] } },
{ "type": "Feature", "properties": { "RegNTurism": 52094, "NomEstable": "BARRA BTA PALACIO DE JUSTICIA", "SubCatRNT": "N", "SecCatastr": "LA CATEDRAL", "Latitud": 4.59982, "Longitud": -74.075817, "Localidad": "17" }, "geometry": { "type": "Point", "coordinates": [ -8246082.22849999927, 512600.55180000141263 ] } },
{ "type": "Feature", "properties": { "RegNTurism": 52095, "NomEstable": "BARRA BTA TORRE COLPATRIA", "SubCatRNT": "N", "SecCatastr": "LAS NIEVES", "Latitud": 4.611007, "Longitud": -74.070014, "Localidad": "3" }, "geometry": { "type": "Point", "coordinates": [ -8245436.241499999538, 513849.916799999773502 ] } },
{ "type": "Feature", "properties": { "RegNTurism": 52099, "NomEstable": "BARRA BTA EXPRESS CEDRITOS", "SubCatRNT": "N", "SecCatastr": "CEDRITOS", "Latitud": 4.719927, "Longitud": -74.037846, "Localidad": "1" }, "geometry": { "type": "Point", "coordinates": [ -8241855.316199999303, 526015.145899999886751 ] } },
{ "type": "Feature", "properties": { "RegNTurism": 52102, "NomEstable": "BARRA BTA LA CASTELLANA", "SubCatRNT": "N", "SecCatastr": "LA CASTELLANA", "Latitud": 4.683613, "Longitud": -74.059815, "Localidad": "12" }, "geometry": { "type": "Point", "coordinates": [ -8244300.89399999939, 521959.040500000119209 ] } },
{ "type": "Feature", "properties": { "RegNTurism": 52104, "NomEstable": "BARRA BTA EXPRESS PARK WAY", "SubCatRNT": "N", "SecCatastr": "LA SOLEDAD", "Latitud": 4.632259, "Longitud": -74.07523, "Localidad": "13" }, "geometry": { "type": "Point", "coordinates": [ -8246016.88399999961, 516223.395899999886751 ] } },
{ "type": "Feature", "properties": { "RegNTurism": 52106, "NomEstable": "BARRA BTA TELEPORT", "SubCatRNT": "PC", "SecCatastr": "SANTA ANA OCCIDENTAL", "Latitud": 4.692134, "Longitud": -74.033847, "Localidad": "1" }, "geometry": { "type": "Point", "coordinates": [ -8241410.149499999359, 522910.777699999511242 ] } },
{ "type": "Feature", "properties": { "RegNTurism": 52156, "NomEstable": "BARRA BTA LAGO 77 CON 14", "SubCatRNT": "N", "SecCatastr": "LAGO GAITAN", "Latitud": 4.663527, "Longitud": -74.058018, "Localidad": "2" }, "geometry": { "type": "Point", "coordinates": [ -8244100.8529, 519715.618000000715256 ] } },
{ "type": "Feature", "properties": { "RegNTurism": 52507, "NomEstable": "OSAKI ARTISAN", "SubCatRNT": "PC", "SecCatastr": "EMAUS", "Latitud": 4.653527, "Longitud": -74.054641, "Localidad": "2" }, "geometry": { "type": "Point", "coordinates": [ -8243724.92699999921, 518598.733399998396635 ] } },
{ "type": "Feature", "properties": { "RegNTurism": 53243, "NomEstable": "SIPOTE BURRITO 71", "SubCatRNT": "N", "SecCatastr": "EMAUS", "Latitud": 4.653347, "Longitud": -74.054312, "Localidad": "2" }, "geometry": { "type": "Point", "coordinates": [ -8243688.302899999544, 518578.629599999636412 ] } },
{ "type": "Feature", "properties": { "RegNTurism": 53245, "NomEstable": "SIPOTE BURRITO SANTAFE", "SubCatRNT": "N", "SecCatastr": "MIRANDELA", "Latitud": 4.763408, "Longitud": -74.04602, "Localidad": "11" }, "geometry": { "type": "Point", "coordinates": [ -8242765.241699999198, 530872.051399998366833 ] } },
{ "type": "Feature", "properties": { "RegNTurism": 53246, "NomEstable": "SIPOTE BURRITO UNICENTRO", "SubCatRNT": "N", "SecCatastr": "SANTA BARBARA CENTRAL", "Latitud": 4.702757, "Longitud": -74.042769, "Localidad": "1" }, "geometry": { "type": "Point", "coordinates": [ -8242403.342, 524097.310199998319149 ] } },
{ "type": "Feature", "properties": { "RegNTurism": 54128, "NomEstable": "PRESTO BTA HACIENDA SANTA BARBARA", "SubCatRNT": "PC", "SecCatastr": "USAQUEN", "Latitud": 4.693769, "Longitud": -74.032579, "Localidad": "1" }, "geometry": { "type": "Point", "coordinates": [ -8241268.9964, 523093.397300001233816 ] } },
{ "type": "Feature", "properties": { "RegNTurism": 54240, "NomEstable": "MALU RESTAURANTE", "SubCatRNT": "PC", "SecCatastr": "SANTA BIBIANA", "Latitud": 4.690343, "Longitud": -74.050911, "Localidad": "1" }, "geometry": { "type": "Point", "coordinates": [ -8243309.705299999565, 522710.734299998730421 ] } },
{ "type": "Feature", "properties": { "RegNTurism": 55583, "NomEstable": "GARNISH SAS BOGOTA", "SubCatRNT": "PC", "SecCatastr": "EL PROGRESO", "Latitud": 4.598898, "Longitud": -74.090404, "Localidad": "14" }, "geometry": { "type": "Point", "coordinates": [ -8247706.0459, 512497.583599999547005 ] } },
{ "type": "Feature", "properties": { "RegNTurism": 56001, "NomEstable": "BARRA BTA MUELLE NACIONAL NORTE", "SubCatRNT": "N", "SecCatastr": "AEROPUERTO EL DORADO", "Latitud": 4.688441, "Longitud": -74.131974, "Localidad": "9" }, "geometry": { "type": "Point", "coordinates": [ -8252333.5972, 522498.293499998748302 ] } },
{ "type": "Feature", "properties": { "RegNTurism": 57563, "NomEstable": "MARCHA MEDITERRANEO", "SubCatRNT": "PC", "SecCatastr": "CENTRO ADMINISTRATIVO", "Latitud": 4.596688, "Longitud": -74.072838, "Localidad": "17" }, "geometry": { "type": "Point", "coordinates": [ -8245750.607799999416, 512250.773299999535084 ] } },
{ "type": "Feature", "properties": { "RegNTurism": 57588, "NomEstable": "PRESTO BTA CALLE 74", "SubCatRNT": "N", "SecCatastr": "PORCIUNCULA", "Latitud": 4.661334, "Longitud": -74.060146, "Localidad": "2" }, "geometry": { "type": "Point", "coordinates": [ -8244337.7408, 519470.683800000697374 ] } },
{ "type": "Feature", "properties": { "RegNTurism": 57589, "NomEstable": "PRESTO BTA CENTRO COMERCIAL ANDINO", "SubCatRNT": "N", "SecCatastr": "EL RETIRO", "Latitud": 4.66627, "Longitud": -74.052629, "Localidad": "2" }, "geometry": { "type": "Point", "coordinates": [ -8243500.952199999243, 520021.982200000435114 ] } },
{ "type": "Feature", "properties": { "RegNTurism": 57590, "NomEstable": "PRESTO BTA CALLE 27", "SubCatRNT": "N", "SecCatastr": "SAN DIEGO", "Latitud": 4.614183, "Longitud": -74.069367, "Localidad": "3" }, "geometry": { "type": "Point", "coordinates": [ -8245364.2178, 514204.616300001740456 ] } },
{ "type": "Feature", "properties": { "RegNTurism": 58206, "NomEstable": "WOK PARA LLEVAR", "SubCatRNT": "PC", "SecCatastr": "QUINTA CAMACHO", "Latitud": 4.653537, "Longitud": -74.058634, "Localidad": "2" }, "geometry": { "type": "Point", "coordinates": [ -8244169.425699999556, 518599.85020000115037 ] } },
{ "type": "Feature", "properties": { "RegNTurism": 58217, "NomEstable": "CAFE SANTA CLARA", "SubCatRNT": "PC", "SecCatastr": "PARQUE NACIONAL ORIENTAL", "Latitud": 4.602765, "Longitud": -74.061061, "Localidad": "3" }, "geometry": { "type": "Point", "coordinates": [ -8244439.59809999913, 512929.447700001299381 ] } },
{ "type": "Feature", "properties": { "RegNTurism": 58221, "NomEstable": "COSETTE", "SubCatRNT": "PC", "SecCatastr": "EL RETIRO", "Latitud": 4.66627, "Longitud": -74.052629, "Localidad": "2" }, "geometry": { "type": "Point", "coordinates": [ -8243500.952199999243, 520021.982200000435114 ] } },
{ "type": "Feature", "properties": { "RegNTurism": 58958, "NomEstable": "TASCA LA PUERTA DE ALCALA", "SubCatRNT": "PC", "SecCatastr": "USAQUEN", "Latitud": 4.694444, "Longitud": -74.029972, "Localidad": "1" }, "geometry": { "type": "Point", "coordinates": [ -8240978.786499999464, 523168.790899999439716 ] } },
{ "type": "Feature", "properties": { "RegNTurism": 59719, "NomEstable": "ANDRES PARADERO AEROPUERTO EL DORADO", "SubCatRNT": "PC", "SecCatastr": "AEROPUERTO EL DORADO", "Latitud": 4.699297, "Longitud": -74.142096, "Localidad": "9" }, "geometry": { "type": "Point", "coordinates": [ -8253460.373099999502, 523710.844599999487 ] } },
{ "type": "Feature", "properties": { "RegNTurism": 59863, "NomEstable": "LA BONGA DEL SINU DE LA 93", "SubCatRNT": "PC", "SecCatastr": "CHICO NORTE", "Latitud": 4.675825, "Longitud": -74.048754, "Localidad": "2" }, "geometry": { "type": "Point", "coordinates": [ -8243069.589199999347, 521089.184500001370907 ] } },
{ "type": "Feature", "properties": { "RegNTurism": 61417, "NomEstable": "KOKORIKO GALERIAS", "SubCatRNT": "PC", "SecCatastr": "ALFONSO LOPEZ", "Latitud": 4.640786, "Longitud": -74.07438, "Localidad": "13" }, "geometry": { "type": "Point", "coordinates": [ -8245922.262399999425, 517175.73369999975 ] } },
{ "type": "Feature", "properties": { "RegNTurism": 65884, "NomEstable": "ANDRES PARADERO VIAJERO", "SubCatRNT": "PC", "SecCatastr": "AEROPUERTO EL DORADO", "Latitud": 4.699297, "Longitud": -74.142096, "Localidad": "9" }, "geometry": { "type": "Point", "coordinates": [ -8253460.373099999502, 523710.844599999487 ] } },
{ "type": "Feature", "properties": { "RegNTurism": 66117, "NomEstable": "LA TAQUERIA TACOS Y MICHELADAS", "SubCatRNT": "PC", "SecCatastr": "EL RETIRO", "Latitud": 4.668375, "Longitud": -74.053724, "Localidad": "2" }, "geometry": { "type": "Point", "coordinates": [ -8243622.84699999914, 520257.089400000870228 ] } },
{ "type": "Feature", "properties": { "RegNTurism": 66659, "NomEstable": "GITANE TABERNA MEDITERRANEA", "SubCatRNT": "PC", "SecCatastr": "EL RETIRO", "Latitud": 4.665722, "Longitud": -74.050733, "Localidad": "2" }, "geometry": { "type": "Point", "coordinates": [ -8243289.890399999917, 519960.776299998164177 ] } },
{ "type": "Feature", "properties": { "RegNTurism": 66686, "NomEstable": "CREPES Y WAFFLES S A RESTAURANTE MAMBO", "SubCatRNT": "PC", "SecCatastr": "LAS NIEVES", "Latitud": 4.610083, "Longitud": -74.069281, "Localidad": "3" }, "geometry": { "type": "Point", "coordinates": [ -8245354.6443, 513746.723600000143051 ] } },
{ "type": "Feature", "properties": { "RegNTurism": 68542, "NomEstable": "PRESTO BTA CHICO NORTE", "SubCatRNT": "N", "SecCatastr": "CHICO NORTE III SECTOR", "Latitud": 4.685559, "Longitud": -74.056235, "Localidad": "2" }, "geometry": { "type": "Point", "coordinates": [ -8243902.3703, 522176.394299998879433 ] } },
{ "type": "Feature", "properties": { "RegNTurism": 69654, "NomEstable": "NARCOBOLLO 8", "SubCatRNT": "PC", "SecCatastr": "SANTA BARBARA OCCIDENTAL", "Latitud": 4.699199, "Longitud": -74.051545, "Localidad": "1" }, "geometry": { "type": "Point", "coordinates": [ -8243380.281899999827, 523699.898499999195337 ] } },
{ "type": "Feature", "properties": { "RegNTurism": 71203, "NomEstable": "TERIYAKI 118", "SubCatRNT": "PC", "SecCatastr": "USAQUEN", "Latitud": 4.695177, "Longitud": -74.031926, "Localidad": "1" }, "geometry": { "type": "Point", "coordinates": [ -8241196.3048, 523250.66270000115037 ] } },
{ "type": "Feature", "properties": { "RegNTurism": 72853, "NomEstable": "RESTAURANTE WOK", "SubCatRNT": "PC", "SecCatastr": "SALITRE OCCIDENTAL", "Latitud": 4.652661, "Longitud": -74.109111, "Localidad": "9" }, "geometry": { "type": "Point", "coordinates": [ -8249788.4997, 518502.011900000274181 ] } },
{ "type": "Feature", "properties": { "RegNTurism": 75516, "NomEstable": "BARRA BTA C.C AV CHILE", "SubCatRNT": "PC", "SecCatastr": "PORCIUNCULA", "Latitud": 4.656668, "Longitud": -74.057815, "Localidad": "2" }, "geometry": { "type": "Point", "coordinates": [ -8244078.2551, 518949.545099999755621 ] } },
{ "type": "Feature", "properties": { "RegNTurism": 77194, "NomEstable": "KOKORIKO AEROPUERTO", "SubCatRNT": "PC", "SecCatastr": "AEROPUERTO EL DORADO", "Latitud": 4.696752, "Longitud": -74.139026, "Localidad": "9" }, "geometry": { "type": "Point", "coordinates": [ -8253118.622199999169, 523426.581500001251698 ] } },
{ "type": "Feature", "properties": { "RegNTurism": 80206, "NomEstable": "STORIA D'AMORE 122", "SubCatRNT": "PC", "SecCatastr": "SANTA BARBARA OCCIDENTAL", "Latitud": 4.700963, "Longitud": -74.04429, "Localidad": "1" }, "geometry": { "type": "Point", "coordinates": [ -8242572.6589, 523896.9287 ] } },
{ "type": "Feature", "properties": { "RegNTurism": 80207, "NomEstable": "STORIA D'AMORE 82", "SubCatRNT": "PC", "SecCatastr": "EL RETIRO", "Latitud": 4.667287, "Longitud": -74.054746, "Localidad": "2" }, "geometry": { "type": "Point", "coordinates": [ -8243736.615499999374, 520135.570700000971556 ] } },
{ "type": "Feature", "properties": { "RegNTurism": 80990, "NomEstable": "CANTINA LA 15", "SubCatRNT": "K", "SecCatastr": "EL RETIRO", "Latitud": 4.668318, "Longitud": -74.054171, "Localidad": "2" }, "geometry": { "type": "Point", "coordinates": [ -8243672.606799999252, 520250.723000001162291 ] } },
{ "type": "Feature", "properties": { "RegNTurism": 83844, "NomEstable": "RESTAURANTE DE RIVERO BISTRO", "SubCatRNT": "PC", "SecCatastr": "CHAPINERO NORTE", "Latitud": 4.650572, "Longitud": -74.0596, "Localidad": "2" }, "geometry": { "type": "Point", "coordinates": [ -8244276.9604, 518268.697000000625849 ] } },
{ "type": "Feature", "properties": { "RegNTurism": 84126, "NomEstable": "DILUCCA SALITRE", "SubCatRNT": "PC", "SecCatastr": "CIUDAD SALITRE NOR-ORIENTAL", "Latitud": 4.646516, "Longitud": -74.102105, "Localidad": "13" }, "geometry": { "type": "Point", "coordinates": [ -8249008.5953, 517815.695000000298023 ] } },
{ "type": "Feature", "properties": { "RegNTurism": 84127, "NomEstable": "COSETTE SALITRE", "SubCatRNT": "PC", "SecCatastr": "CIUDAD SALITRE NOR-ORIENTAL", "Latitud": 4.646516, "Longitud": -74.102105, "Localidad": "13" }, "geometry": { "type": "Point", "coordinates": [ -8249008.5953, 517815.695000000298023 ] } },
{ "type": "Feature", "properties": { "RegNTurism": 84231, "NomEstable": "MI GRAN PARRILLA BOYACENSE GOURMET", "SubCatRNT": "PC", "SecCatastr": "CIUDAD SALITRE NOR-ORIENTAL", "Latitud": 4.646878, "Longitud": -74.102224, "Localidad": "13" }, "geometry": { "type": "Point", "coordinates": [ -8249021.842299999669, 517856.125599998980761 ] } },
{ "type": "Feature", "properties": { "RegNTurism": 84678, "NomEstable": "VISTA CORONA", "SubCatRNT": "K", "SecCatastr": "CHICO NORTE", "Latitud": 4.67645, "Longitud": -74.048585, "Localidad": "2" }, "geometry": { "type": "Point", "coordinates": [ -8243050.7762, 521158.991500001400709 ] } },
{ "type": "Feature", "properties": { "RegNTurism": 87021, "NomEstable": "GUYS BURGER JOINT", "SubCatRNT": "PC", "SecCatastr": "AEROPUERTO EL DORADO", "Latitud": 4.699316, "Longitud": -74.14194, "Localidad": "9" }, "geometry": { "type": "Point", "coordinates": [ -8253443.0072, 523712.96680000051856 ] } },
{ "type": "Feature", "properties": { "RegNTurism": 87466, "NomEstable": "GUACAMOLE ANDELE", "SubCatRNT": "PC", "SecCatastr": "AEROPUERTO EL DORADO", "Latitud": 4.699316, "Longitud": -74.14194, "Localidad": "9" }, "geometry": { "type": "Point", "coordinates": [ -8253443.0072, 523712.96680000051856 ] } },
{ "type": "Feature", "properties": { "RegNTurism": 89741, "NomEstable": "ANDRES PARADERO HYATT", "SubCatRNT": "PC", "SecCatastr": "ORTEZAL", "Latitud": 4.63156, "Longitud": -74.093381, "Localidad": "13" }, "geometry": { "type": "Point", "coordinates": [ -8248037.444099999964, 516145.328600000590086 ] } },
{ "type": "Feature", "properties": { "RegNTurism": 89850, "NomEstable": "THE MARKETPLACE BY WOLFGANG PUCK", "SubCatRNT": "PC", "SecCatastr": "AEROPUERTO EL DORADO", "Latitud": 4.699316, "Longitud": -74.14194, "Localidad": "9" }, "geometry": { "type": "Point", "coordinates": [ -8253443.0072, 523712.96680000051856 ] } },
{ "type": "Feature", "properties": { "RegNTurism": 89851, "NomEstable": "CUMBIA HOUSE MERA EL DORADO", "SubCatRNT": "PC", "SecCatastr": "AEROPUERTO EL DORADO", "Latitud": 4.699316, "Longitud": -74.14194, "Localidad": "9" }, "geometry": { "type": "Point", "coordinates": [ -8253443.0072, 523712.96680000051856 ] } },
{ "type": "Feature", "properties": { "RegNTurism": 89852, "NomEstable": "AMAZONIA CAFE", "SubCatRNT": "PC", "SecCatastr": "AEROPUERTO EL DORADO", "Latitud": 4.699316, "Longitud": -74.14194, "Localidad": "9" }, "geometry": { "type": "Point", "coordinates": [ -8253443.0072, 523712.96680000051856 ] } },
{ "type": "Feature", "properties": { "RegNTurism": 89854, "NomEstable": "SUSHI TEQUILA", "SubCatRNT": "PC", "SecCatastr": "AEROPUERTO EL DORADO", "Latitud": 4.699316, "Longitud": -74.14194, "Localidad": "9" }, "geometry": { "type": "Point", "coordinates": [ -8253443.0072, 523712.96680000051856 ] } },
{ "type": "Feature", "properties": { "RegNTurism": 90106, "NomEstable": "RESTAURANTE PRUDENCIA", "SubCatRNT": "PC", "SecCatastr": "EGIPTO", "Latitud": 4.595794, "Longitud": -74.070684, "Localidad": "17" }, "geometry": { "type": "Point", "coordinates": [ -8245510.8256, 512150.932599999010563 ] } },
{ "type": "Feature", "properties": { "RegNTurism": 92565, "NomEstable": "DON JEDIONDO SOPITAS Y PARRILLA SALITRE", "SubCatRNT": "PC", "SecCatastr": "SALITRE OCCIDENTAL", "Latitud": 4.652661, "Longitud": -74.109111, "Localidad": "9" }, "geometry": { "type": "Point", "coordinates": [ -8249788.4997, 518502.011900000274181 ] } },
{ "type": "Feature", "properties": { "RegNTurism": 92724, "NomEstable": "SANDWICH VILLAMAYOR", "SubCatRNT": "PC", "SecCatastr": "VILLA MAYOR ORIENTAL", "Latitud": 4.589287, "Longitud": -74.122627, "Localidad": "18" }, "geometry": { "type": "Point", "coordinates": [ -8251293.0939, 511424.243500001728535 ] } },
{ "type": "Feature", "properties": { "RegNTurism": 92781, "NomEstable": "CREPES Y WAFFLES S.A  HELADERIA AEROPUERTO", "SubCatRNT": "PC", "SecCatastr": "AEROPUERTO EL DORADO", "Latitud": 4.698036, "Longitud": -74.141039, "Localidad": "9" }, "geometry": { "type": "Point", "coordinates": [ -8253342.708399999887, 523569.997400000691414 ] } },
{ "type": "Feature", "properties": { "RegNTurism": 92833, "NomEstable": "CREPES Y WAFFLES S.A  RESTAURANTE ARTESANO CALLE 81", "SubCatRNT": "PC", "SecCatastr": "EL NOGAL", "Latitud": 4.663752, "Longitud": -74.051451, "Localidad": "2" }, "geometry": { "type": "Point", "coordinates": [ -8243369.8178, 519740.748100001364946 ] } },
{ "type": "Feature", "properties": { "RegNTurism": 92965, "NomEstable": "LEOS & CARBON SM AEROPUERTO", "SubCatRNT": "PC", "SecCatastr": "AEROPUERTO EL DORADO", "Latitud": 4.699126, "Longitud": -74.141945, "Localidad": "9" }, "geometry": { "type": "Point", "coordinates": [ -8253443.563799999654, 523691.744800001382828 ] } },
{ "type": "Feature", "properties": { "RegNTurism": 94653, "NomEstable": "CBC 12", "SubCatRNT": "PC", "SecCatastr": "ANTIGUO COUNTRY", "Latitud": 4.671136, "Longitud": -74.056154, "Localidad": "2" }, "geometry": { "type": "Point", "coordinates": [ -8243893.35339999944, 520565.466099999845028 ] } },
{ "type": "Feature", "properties": { "RegNTurism": 94871, "NomEstable": "EL TECHO MEXICANO", "SubCatRNT": "PC", "SecCatastr": "ESPARTILLAL", "Latitud": 4.666309, "Longitud": -74.053937, "Localidad": "2" }, "geometry": { "type": "Point", "coordinates": [ -8243646.5581, 520026.338100001215935 ] } },
{ "type": "Feature", "properties": { "RegNTurism": 95200, "NomEstable": "CBC 216", "SubCatRNT": "PC", "SecCatastr": "MIRANDELA", "Latitud": 4.763408, "Longitud": -74.04602, "Localidad": "11" }, "geometry": { "type": "Point", "coordinates": [ -8242765.241699999198, 530872.051399998366833 ] } },
{ "type": "Feature", "properties": { "RegNTurism": 95421, "NomEstable": "ANDRS PARADERO PLAZA CLARO", "SubCatRNT": "PC", "SecCatastr": "SALITRE OCCIDENTAL", "Latitud": 4.651955, "Longitud": -74.106839, "Localidad": "9" }, "geometry": { "type": "Point", "coordinates": [ -8249535.5818, 518423.160599999129772 ] } },
{ "type": "Feature", "properties": { "RegNTurism": 95441, "NomEstable": "HOOTERS ZONA T", "SubCatRNT": "K", "SecCatastr": "EL RETIRO", "Latitud": 4.667981, "Longitud": -74.054356, "Localidad": "2" }, "geometry": { "type": "Point", "coordinates": [ -8243693.200899999589, 520213.083500001579523 ] } },
{ "type": "Feature", "properties": { "RegNTurism": 95582, "NomEstable": "HOOTERS SALITRE", "SubCatRNT": "K", "SecCatastr": "CIUDAD SALITRE NOR-ORIENTAL", "Latitud": 4.639056, "Longitud": -74.098398, "Localidad": "13" }, "geometry": { "type": "Point", "coordinates": [ -8248595.934, 516982.517700001597404 ] } },
{ "type": "Feature", "properties": { "RegNTurism": 95662, "NomEstable": "DIANA GARCIA CHEF EN MOVIMIENTO", "SubCatRNT": "PC", "SecCatastr": "EMAUS", "Latitud": 4.653391, "Longitud": -74.05609, "Localidad": "2" }, "geometry": { "type": "Point", "coordinates": [ -8243886.2289, 518583.543800000101328 ] } },
{ "type": "Feature", "properties": { "RegNTurism": 96092, "NomEstable": "VAPIANO ZONA T", "SubCatRNT": "PC", "SecCatastr": "EL RETIRO", "Latitud": 4.66751, "Longitud": -74.053978, "Localidad": "2" }, "geometry": { "type": "Point", "coordinates": [ -8243651.122199999169, 520160.477499999106 ] } },
{ "type": "Feature", "properties": { "RegNTurism": 96209, "NomEstable": "BAGATELLE PARQUE 93", "SubCatRNT": "PC", "SecCatastr": "CHICO NORTE", "Latitud": 4.677286, "Longitud": -74.048986, "Localidad": "2" }, "geometry": { "type": "Point", "coordinates": [ -8243095.4153, 521252.365499999374151 ] } },
{ "type": "Feature", "properties": { "RegNTurism": 96387, "NomEstable": "CAF NACIONAL DE LA VICTORIA", "SubCatRNT": "PC", "SecCatastr": "SAMPER", "Latitud": 4.616455, "Longitud": -74.069169, "Localidad": "3" }, "geometry": { "type": "Point", "coordinates": [ -8245342.17659999989, 514458.356899999082088 ] } },
{ "type": "Feature", "properties": { "RegNTurism": 97251, "NomEstable": "RESTAURANTE BAR LA EMBAJADA", "SubCatRNT": "PC", "SecCatastr": "JUAN XXIII", "Latitud": 4.666639, "Longitud": -74.064786, "Localidad": "12" }, "geometry": { "type": "Point", "coordinates": [ -8244854.263199999928, 520063.195700000971556 ] } },
{ "type": "Feature", "properties": { "RegNTurism": 97447, "NomEstable": "LOMOS", "SubCatRNT": "PC", "SecCatastr": "SANTA BIBIANA", "Latitud": 4.686883, "Longitud": -74.054407, "Localidad": "1" }, "geometry": { "type": "Point", "coordinates": [ -8243698.8782, 522324.275699999183416 ] } },
{ "type": "Feature", "properties": { "RegNTurism": 97880, "NomEstable": "DOA OFELIA", "SubCatRNT": "PC", "SecCatastr": "LA CONCORDIA", "Latitud": 4.597931, "Longitud": -74.068822, "Localidad": "17" }, "geometry": { "type": "Point", "coordinates": [ -8245303.548699999228, 512389.59010000154376 ] } },
{ "type": "Feature", "properties": { "RegNTurism": 98080, "NomEstable": "SAGAL DE LA 93", "SubCatRNT": "PC", "SecCatastr": "CHICO NORTE", "Latitud": 4.677042, "Longitud": -74.050841, "Localidad": "2" }, "geometry": { "type": "Point", "coordinates": [ -8243301.9129, 521225.112799998372793 ] } },
{ "type": "Feature", "properties": { "RegNTurism": 99221, "NomEstable": "LA COCINA DE NICOLASA", "SubCatRNT": "PC", "SecCatastr": "LAS AGUAS", "Latitud": 4.598751, "Longitud": -74.068541, "Localidad": "17" }, "geometry": { "type": "Point", "coordinates": [ -8245272.267899999395, 512481.166799999773502 ] } },
{ "type": "Feature", "properties": { "RegNTurism": 99357, "NomEstable": "RESTAURANTE CAFETERIA RECETAS DE LA ABUELA", "SubCatRNT": "PC", "SecCatastr": "LA CONCORDIA", "Latitud": 4.597931, "Longitud": -74.068822, "Localidad": "17" }, "geometry": { "type": "Point", "coordinates": [ -8245303.548699999228, 512389.59010000154376 ] } },
{ "type": "Feature", "properties": { "RegNTurism": 99410, "NomEstable": "SABOR COLOMBIA EMPANADAS", "SubCatRNT": "PC", "SecCatastr": "LA CONCORDIA", "Latitud": 4.597931, "Longitud": -74.068822, "Localidad": "17" }, "geometry": { "type": "Point", "coordinates": [ -8245303.548699999228, 512389.59010000154376 ] } },
{ "type": "Feature", "properties": { "RegNTurism": 99633, "NomEstable": "CREPES Y WAFFLES S.A  RESTAURANTE LA NOVENTA", "SubCatRNT": "PC", "SecCatastr": "EL CHICO", "Latitud": 4.672303, "Longitud": -74.048992, "Localidad": "2" }, "geometry": { "type": "Point", "coordinates": [ -8243096.0832, 520695.809000000357628 ] } },
{ "type": "Feature", "properties": { "RegNTurism": 101084, "NomEstable": "LA CASA DE LA TROCHA LA CASA DE LA PAZ", "SubCatRNT": "K", "SecCatastr": "SAGRADO CORAZON", "Latitud": 4.624796, "Longitud": -74.067647, "Localidad": "3" }, "geometry": { "type": "Point", "coordinates": [ -8245172.748299999163, 515389.900400001555681 ] } },
{ "type": "Feature", "properties": { "RegNTurism": 101453, "NomEstable": "PIZZERIA PIAZZOLLA", "SubCatRNT": "PC", "SecCatastr": "LA MACARENA", "Latitud": 4.61622, "Longitud": -74.066099, "Localidad": "3" }, "geometry": { "type": "Point", "coordinates": [ -8245000.425699999556, 514432.111699998378754 ] } },
{ "type": "Feature", "properties": { "RegNTurism": 101531, "NomEstable": "LA ESQUINA DE MARY & EL BUEN SABOR DEL PACIFICO", "SubCatRNT": "PC", "SecCatastr": "LA MACARENA", "Latitud": 4.61622, "Longitud": -74.066099, "Localidad": "3" }, "geometry": { "type": "Point", "coordinates": [ -8245000.425699999556, 514432.111699998378754 ] } },
{ "type": "Feature", "properties": { "RegNTurism": 101674, "NomEstable": "L' PULOY", "SubCatRNT": "L", "SecCatastr": "DOCE DE OCTUBRE", "Latitud": 4.668734, "Longitud": -74.074318, "Localidad": "12" }, "geometry": { "type": "Point", "coordinates": [ -8245915.3606, 520297.186099998652935 ] } },
{ "type": "Feature", "properties": { "RegNTurism": 102018, "NomEstable": "EL BANDIDO BISTR", "SubCatRNT": "PC", "SecCatastr": "EL NOGAL", "Latitud": 4.661399, "Longitud": -74.050298, "Localidad": "2" }, "geometry": { "type": "Point", "coordinates": [ -8243241.466499999166, 519477.943599998950958 ] } },
{ "type": "Feature", "properties": { "RegNTurism": 102603, "NomEstable": "PPC POLLO PIZZA CARNE", "SubCatRNT": "PC", "SecCatastr": "LA CATEDRAL", "Latitud": 4.599068, "Longitud": -74.074887, "Localidad": "17" }, "geometry": { "type": "Point", "coordinates": [ -8245978.7014, 512516.569099999964 ] } },
{ "type": "Feature", "properties": { "RegNTurism": 102936, "NomEstable": "FROG BOLIRANA CLUB", "SubCatRNT": "K", "SecCatastr": "LA AURORA", "Latitud": 4.665993, "Longitud": -74.065316, "Localidad": "12" }, "geometry": { "type": "Point", "coordinates": [ -8244913.262599999085, 519991.044199999421835 ] } },
{ "type": "Feature", "properties": { "RegNTurism": 103034, "NomEstable": "SEMOLINA 9", "SubCatRNT": "PC", "SecCatastr": "EL CHICO", "Latitud": 4.672303, "Longitud": -74.048992, "Localidad": "2" }, "geometry": { "type": "Point", "coordinates": [ -8243096.0832, 520695.809000000357628 ] } },
{ "type": "Feature", "properties": { "RegNTurism": 103225, "NomEstable": "SAGAL BULEVAR NIZA", "SubCatRNT": "PC", "SecCatastr": "LAS VILLAS", "Latitud": 4.711597, "Longitud": -74.070535, "Localidad": "11" }, "geometry": { "type": "Point", "coordinates": [ -8245494.239, 525084.704799998551607 ] } },
{ "type": "Feature", "properties": { "RegNTurism": 103287, "NomEstable": "RESTAURANTE WOK", "SubCatRNT": "PC", "SecCatastr": "LA SOLEDAD", "Latitud": 4.630377, "Longitud": -74.075264, "Localidad": "13" }, "geometry": { "type": "Point", "coordinates": [ -8246020.668899999931, 516013.206300001591444 ] } },
{ "type": "Feature", "properties": { "RegNTurism": 103387, "NomEstable": "ABASTO", "SubCatRNT": "PC", "SecCatastr": "USAQUEN", "Latitud": 4.694518, "Longitud": -74.0302, "Localidad": "1" }, "geometry": { "type": "Point", "coordinates": [ -8241004.1673, 523177.056200001388788 ] } },
{ "type": "Feature", "properties": { "RegNTurism": 103773, "NomEstable": "STORIA D'AMORE LA 93", "SubCatRNT": "PC", "SecCatastr": "CHICO NORTE", "Latitud": 4.677272, "Longitud": -74.050161, "Localidad": "2" }, "geometry": { "type": "Point", "coordinates": [ -8243226.2157, 521250.80180000141263 ] } },
{ "type": "Feature", "properties": { "RegNTurism": 104000, "NomEstable": "MC DONALD'S EL EDEN", "SubCatRNT": "O", "SecCatastr": "VILLA ALSACIA", "Latitud": 4.648108, "Longitud": -74.12756, "Localidad": "9" }, "geometry": { "type": "Point", "coordinates": [ -8251842.232899999246, 517993.500199999660254 ] } },
{ "type": "Feature", "properties": { "RegNTurism": 104003, "NomEstable": "MC DONALD S PARQUE 93", "SubCatRNT": "O", "SecCatastr": "CHICO NORTE", "Latitud": 4.676357, "Longitud": -74.048477, "Localidad": "2" }, "geometry": { "type": "Point", "coordinates": [ -8243038.753699999303, 521148.604200001806021 ] } },
{ "type": "Feature", "properties": { "RegNTurism": 104038, "NomEstable": "MC DONALS GALERIA 2", "SubCatRNT": "O", "SecCatastr": "GALERIAS", "Latitud": 4.641972, "Longitud": -74.07483, "Localidad": "13" }, "geometry": { "type": "Point", "coordinates": [ -8245972.3562, 517308.193 ] } },
{ "type": "Feature", "properties": { "RegNTurism": 104041, "NomEstable": "MCDONALDS KIOSCO ATLANTIS", "SubCatRNT": "O", "SecCatastr": "ESPARTILLAL", "Latitud": 4.666343, "Longitud": -74.05546, "Localidad": "2" }, "geometry": { "type": "Point", "coordinates": [ -8243816.097699999809, 520030.135600000619888 ] } },
{ "type": "Feature", "properties": { "RegNTurism": 104090, "NomEstable": "MC DONALD S CENTRO INTERNACIONAL", "SubCatRNT": "O", "SecCatastr": "SAN DIEGO", "Latitud": 4.613506, "Longitud": -74.069926, "Localidad": "3" }, "geometry": { "type": "Point", "coordinates": [ -8245426.445399999619, 514129.008000001311302 ] } },
{ "type": "Feature", "properties": { "RegNTurism": 104091, "NomEstable": "MCDONALD S PLAZA DE LAS AMERICAS", "SubCatRNT": "O", "SecCatastr": "PROVIVIENDA", "Latitud": 4.615949, "Longitud": -74.137835, "Localidad": "8" }, "geometry": { "type": "Point", "coordinates": [ -8252986.040699999779, 514401.845899999141693 ] } },
{ "type": "Feature", "properties": { "RegNTurism": 104092, "NomEstable": "MC DONALD S CALIMA", "SubCatRNT": "O", "SecCatastr": "PALOQUEMAO", "Latitud": 4.617104, "Longitud": -74.086698, "Localidad": "14" }, "geometry": { "type": "Point", "coordinates": [ -8247293.495899999514, 514530.83839999884367 ] } },
{ "type": "Feature", "properties": { "RegNTurism": 104097, "NomEstable": "MCDONALDS UNICENTRO", "SubCatRNT": "O", "SecCatastr": "SANTA BARBARA CENTRAL", "Latitud": 4.702757, "Longitud": -74.042769, "Localidad": "1" }, "geometry": { "type": "Point", "coordinates": [ -8242403.342, 524097.310199998319149 ] } },
{ "type": "Feature", "properties": { "RegNTurism": 104098, "NomEstable": "MC DONALD' S CENTRO MAYOR", "SubCatRNT": "O", "SecCatastr": "VILLA MAYOR ORIENTAL", "Latitud": 4.591502, "Longitud": -74.125978, "Localidad": "15" }, "geometry": { "type": "Point", "coordinates": [ -8251666.125499999151, 511671.609700001776218 ] } },
{ "type": "Feature", "properties": { "RegNTurism": 104102, "NomEstable": "MC DONALD S USAQUEN", "SubCatRNT": "O", "SecCatastr": "USAQUEN", "Latitud": 4.695225, "Longitud": -74.03203, "Localidad": "1" }, "geometry": { "type": "Point", "coordinates": [ -8241207.88199999928, 523256.024099998176098 ] } },
{ "type": "Feature", "properties": { "RegNTurism": 104104, "NomEstable": "MCDONALDS SANTAFE", "SubCatRNT": "O", "SecCatastr": "MIRANDELA", "Latitud": 4.763187, "Longitud": -74.044814, "Localidad": "11" }, "geometry": { "type": "Point", "coordinates": [ -8242630.990399999544, 530847.364500001072884 ] } },
{ "type": "Feature", "properties": { "RegNTurism": 104106, "NomEstable": "MC DONALDS AEROPUERTO BOGOTA", "SubCatRNT": "O", "SecCatastr": "AEROPUERTO EL DORADO", "Latitud": 4.690185, "Longitud": -74.132424, "Localidad": "9" }, "geometry": { "type": "Point", "coordinates": [ -8252383.69099999964, 522693.086800001561642 ] } },
{ "type": "Feature", "properties": { "RegNTurism": 104107, "NomEstable": "MCDONALDS ANDINO", "SubCatRNT": "O", "SecCatastr": "EL RETIRO", "Latitud": 4.666643, "Longitud": -74.053975, "Localidad": "2" }, "geometry": { "type": "Point", "coordinates": [ -8243650.7882, 520063.642499998211861 ] } },
{ "type": "Feature", "properties": { "RegNTurism": 104109, "NomEstable": "MCDONALDS SALITRE", "SubCatRNT": "O", "SecCatastr": "SALITRE OCCIDENTAL", "Latitud": 4.652475, "Longitud": -74.109927, "Localidad": "9" }, "geometry": { "type": "Point", "coordinates": [ -8249879.3364, 518481.238000001758337 ] } },
{ "type": "Feature", "properties": { "RegNTurism": 104110, "NomEstable": "MC DONALD S TITAN", "SubCatRNT": "O", "SecCatastr": "SANTA ROSA", "Latitud": 4.695233, "Longitud": -74.085566, "Localidad": "10" }, "geometry": { "type": "Point", "coordinates": [ -8247167.4823, 523256.917599998414516 ] } },
{ "type": "Feature", "properties": { "RegNTurism": 104112, "NomEstable": "MCDONALDS AVE JIMENEZ", "SubCatRNT": "O", "SecCatastr": "LA CATEDRAL", "Latitud": 4.601582, "Longitud": -74.073657, "Localidad": "17" }, "geometry": { "type": "Point", "coordinates": [ -8245841.7784, 512797.330800000578165 ] } },
{ "type": "Feature", "properties": { "RegNTurism": 104113, "NomEstable": "MCDONALDS CIUDAD SALITRE", "SubCatRNT": "O", "SecCatastr": "SALITRE OCCIDENTAL", "Latitud": 4.653136, "Longitud": -74.108708, "Localidad": "9" }, "geometry": { "type": "Point", "coordinates": [ -8249743.6379, 518555.063499998301268 ] } },
{ "type": "Feature", "properties": { "RegNTurism": 106688, "NomEstable": "EL AQUELARRE", "SubCatRNT": "K", "SecCatastr": "EGIPTO", "Latitud": 4.595948, "Longitud": -74.071658, "Localidad": "17" }, "geometry": { "type": "Point", "coordinates": [ -8245619.2508, 512168.131099998950958 ] } },
{ "type": "Feature", "properties": { "RegNTurism": 111923, "NomEstable": "RESTAURANTE QUN", "SubCatRNT": "PC", "SecCatastr": "LA CABRERA", "Latitud": 4.668952, "Longitud": -74.053358, "Localidad": "2" }, "geometry": { "type": "Point", "coordinates": [ -8243582.1041, 520321.534499999135733 ] } },
{ "type": "Feature", "properties": { "RegNTurism": 112233, "NomEstable": "SOTTOVOCE", "SubCatRNT": "PC", "SecCatastr": "SANTA ANA OCCIDENTAL", "Latitud": 4.690979, "Longitud": -74.037127, "Localidad": "1" }, "geometry": { "type": "Point", "coordinates": [ -8241775.2774, 522781.771499998867512 ] } },
{ "type": "Feature", "properties": { "RegNTurism": 114224, "NomEstable": "EXPRESS ANDINO", "SubCatRNT": "PC", "SecCatastr": "EL RETIRO", "Latitud": 4.66627, "Longitud": -74.052629, "Localidad": "2" }, "geometry": { "type": "Point", "coordinates": [ -8243500.952199999243, 520021.982200000435114 ] } },
{ "type": "Feature", "properties": { "RegNTurism": 115955, "NomEstable": "FRITES ARTOIS", "SubCatRNT": "K", "SecCatastr": "EL RETIRO", "Latitud": 4.66777, "Longitud": -74.053126, "Localidad": "2" }, "geometry": { "type": "Point", "coordinates": [ -8243556.278, 520189.516899999231 ] } },
{ "type": "Feature", "properties": { "RegNTurism": 117725, "NomEstable": "PIZZA NOSTRA CALLE 121", "SubCatRNT": "PC", "SecCatastr": "SANTA BARBARA OCCIDENTAL", "Latitud": 4.700573, "Longitud": -74.043782, "Localidad": "1" }, "geometry": { "type": "Point", "coordinates": [ -8242516.1086, 523853.367499999701977 ] } },
{ "type": "Feature", "properties": { "RegNTurism": 118866, "NomEstable": "EL CARNAL", "SubCatRNT": "O", "SecCatastr": "MIRANDELA", "Latitud": 4.763408, "Longitud": -74.04602, "Localidad": "11" }, "geometry": { "type": "Point", "coordinates": [ -8242765.241699999198, 530872.051399998366833 ] } },
{ "type": "Feature", "properties": { "RegNTurism": 118921, "NomEstable": "SANDWICH CUBANO UNICENTRO NORTE", "SubCatRNT": "O", "SecCatastr": "LA CALLEJA", "Latitud": 4.705174, "Longitud": -74.042791, "Localidad": "1" }, "geometry": { "type": "Point", "coordinates": [ -8242405.79099999927, 524367.2787000015378 ] } },
{ "type": "Feature", "properties": { "RegNTurism": 119127, "NomEstable": "PRESTO BTA AV CHILE", "SubCatRNT": "N", "SecCatastr": "PORCIUNCULA", "Latitud": 4.656668, "Longitud": -74.057815, "Localidad": "2" }, "geometry": { "type": "Point", "coordinates": [ -8244078.2551, 518949.545099999755621 ] } },
{ "type": "Feature", "properties": { "RegNTurism": 119182, "NomEstable": "LA COLECTIVA", "SubCatRNT": "PC", "SecCatastr": "EL RETIRO", "Latitud": 4.66894, "Longitud": -74.053337, "Localidad": "2" }, "geometry": { "type": "Point", "coordinates": [ -8243579.7664, 520320.194200001657009 ] } },
{ "type": "Feature", "properties": { "RegNTurism": 119473, "NomEstable": "PRESTO BTA LOURDES", "SubCatRNT": "N", "SecCatastr": "CHAPINERO CENTRAL", "Latitud": 4.649421, "Longitud": -74.063317, "Localidad": "2" }, "geometry": { "type": "Point", "coordinates": [ -8244690.734899999574, 518140.145100001245737 ] } },
{ "type": "Feature", "properties": { "RegNTurism": 119622, "NomEstable": "PRESTO BTA TITAN PLAZA", "SubCatRNT": "N", "SecCatastr": "SANTA ROSA", "Latitud": 4.696091, "Longitud": -74.086719, "Localidad": "10" }, "geometry": { "type": "Point", "coordinates": [ -8247295.833599999547, 523352.751400001347065 ] } },
{ "type": "Feature", "properties": { "RegNTurism": 119626, "NomEstable": "PRESTO BTA METROPOLIS", "SubCatRNT": "N", "SecCatastr": "METROPOLIS", "Latitud": 4.680837, "Longitud": -74.08271, "Localidad": "12" }, "geometry": { "type": "Point", "coordinates": [ -8246849.553799999878, 521648.982799999415874 ] } },
{ "type": "Feature", "properties": { "RegNTurism": 119629, "NomEstable": "PRESTO BTA MODELIA", "SubCatRNT": "N", "SecCatastr": "SANTA CECILIA", "Latitud": 4.667385, "Longitud": -74.118573, "Localidad": "9" }, "geometry": { "type": "Point", "coordinates": [ -8250841.8047, 520146.51630000025034 ] } },
{ "type": "Feature", "properties": { "RegNTurism": 119631, "NomEstable": "PRESTO BTA CORFERIAS", "SubCatRNT": "N", "SecCatastr": "CENTRO NARINO", "Latitud": 4.63169, "Longitud": -74.089589, "Localidad": "13" }, "geometry": { "type": "Point", "coordinates": [ -8247615.320599999279, 516159.847600001841784 ] } },
{ "type": "Feature", "properties": { "RegNTurism": 119632, "NomEstable": "PRESTO BTA HACIENDA SAN RAFAEL", "SubCatRNT": "N", "SecCatastr": "SAN JOSE DEL PRADO", "Latitud": 4.722922, "Longitud": -74.053687, "Localidad": "11" }, "geometry": { "type": "Point", "coordinates": [ -8243618.728199999779, 526349.68299999833107 ] } },
{ "type": "Feature", "properties": { "RegNTurism": 119635, "NomEstable": "PRESTO BTA HOME CENTER 17", "SubCatRNT": "N", "SecCatastr": "NUEVA ZELANDIA", "Latitud": 4.755813, "Longitud": -74.04621, "Localidad": "11" }, "geometry": { "type": "Point", "coordinates": [ -8242786.3924, 530023.65430000051856 ] } },
{ "type": "Feature", "properties": { "RegNTurism": 119636, "NomEstable": "PRESTO BTA EXITO OCCIDENTE", "SubCatRNT": "N", "SecCatastr": "EL DORADO INDUSTRIAL", "Latitud": 4.721913, "Longitud": -74.121585, "Localidad": "10" }, "geometry": { "type": "Point", "coordinates": [ -8251177.09899999946, 526236.978999998420477 ] } },
{ "type": "Feature", "properties": { "RegNTurism": 119811, "NomEstable": "PRESTO BTA CAFAM FLORESTA", "SubCatRNT": "N", "SecCatastr": "LOS ANDES", "Latitud": 4.686907, "Longitud": -74.075124, "Localidad": "12" }, "geometry": { "type": "Point", "coordinates": [ -8246005.0841, 522326.956300001591444 ] } },
{ "type": "Feature", "properties": { "RegNTurism": 119819, "NomEstable": "PRESTO BTA HOME CENTER 8", "SubCatRNT": "N", "SecCatastr": "JULIO FLOREZ", "Latitud": 4.686081, "Longitud": -74.079341, "Localidad": "10" }, "geometry": { "type": "Point", "coordinates": [ -8246474.5184, 522234.697999998927116 ] } },
{ "type": "Feature", "properties": { "RegNTurism": 119827, "NomEstable": "PRESTO BTA JAVERIANA", "SubCatRNT": "N", "SecCatastr": "SUCRE", "Latitud": 4.628752, "Longitud": -74.065587, "Localidad": "2" }, "geometry": { "type": "Point", "coordinates": [ -8244943.430099999532, 515831.719999998807907 ] } },
{ "type": "Feature", "properties": { "RegNTurism": 119838, "NomEstable": "PRESTO BTA SANTA ISABEL", "SubCatRNT": "N", "SecCatastr": "SANTA ISABEL", "Latitud": 4.598883, "Longitud": -74.101076, "Localidad": "14" }, "geometry": { "type": "Point", "coordinates": [ -8248894.047599999234, 512495.908500000834465 ] } },
{ "type": "Feature", "properties": { "RegNTurism": 119839, "NomEstable": "PRESO BTA CALLE14", "SubCatRNT": "N", "SecCatastr": "CEDRITOS", "Latitud": 4.719927, "Longitud": -74.037846, "Localidad": "1" }, "geometry": { "type": "Point", "coordinates": [ -8241855.316199999303, 526015.145899999886751 ] } },
{ "type": "Feature", "properties": { "RegNTurism": 119843, "NomEstable": "PRESTO BTA EL TINTAL", "SubCatRNT": "N", "SecCatastr": "PIO XII", "Latitud": 4.635541, "Longitud": -74.152344, "Localidad": "8" }, "geometry": { "type": "Point", "coordinates": [ -8254601.1752, 516589.944600000977516 ] } },
{ "type": "Feature", "properties": { "RegNTurism": 119873, "NomEstable": "SANDWICH CENTRO MAYOR", "SubCatRNT": "PC", "SecCatastr": "VILLA MAYOR ORIENTAL", "Latitud": 4.592182, "Longitud": -74.123132, "Localidad": "15" }, "geometry": { "type": "Point", "coordinates": [ -8251349.3102, 511747.550700001418591 ] } },
{ "type": "Feature", "properties": { "RegNTurism": 119874, "NomEstable": "PRESTO BTA LA FELICIDAD", "SubCatRNT": "N", "SecCatastr": "CIUDAD HAYUELOS", "Latitud": 4.653355, "Longitud": -74.124922, "Localidad": "9" }, "geometry": { "type": "Point", "coordinates": [ -8251548.5721, 518579.523099999875 ] } },
{ "type": "Feature", "properties": { "RegNTurism": 119886, "NomEstable": "PRESTO BTA DIVER PLAZA", "SubCatRNT": "N", "SecCatastr": "SANTA MONICA", "Latitud": 4.701632, "Longitud": -74.115266, "Localidad": "10" }, "geometry": { "type": "Point", "coordinates": [ -8250473.6711, 523971.652800001204014 ] } },
{ "type": "Feature", "properties": { "RegNTurism": 119887, "NomEstable": "PRESTO BTA LA ESMERALDA", "SubCatRNT": "N", "SecCatastr": "LA ESMERALDA", "Latitud": 4.647117, "Longitud": -74.09334, "Localidad": "13" }, "geometry": { "type": "Point", "coordinates": [ -8248032.88, 517882.81870000064373 ] } },
{ "type": "Feature", "properties": { "RegNTurism": 119888, "NomEstable": "PRESTO BTA MORATO", "SubCatRNT": "N", "SecCatastr": "SANTA ROSA", "Latitud": 4.698659, "Longitud": -74.071809, "Localidad": "11" }, "geometry": { "type": "Point", "coordinates": [ -8245636.06, 523639.583299998193979 ] } },
{ "type": "Feature", "properties": { "RegNTurism": 119889, "NomEstable": "PRESTO BTA NORMANDIA 2", "SubCatRNT": "N", "SecCatastr": "NORMANDIA", "Latitud": 4.670278, "Longitud": -74.105709, "Localidad": "10" }, "geometry": { "type": "Point", "coordinates": [ -8249409.79079999961, 520469.635800000280142 ] } },
{ "type": "Feature", "properties": { "RegNTurism": 119890, "NomEstable": "PRESTO BTA CHAPINERO", "SubCatRNT": "N", "SecCatastr": "MARLY", "Latitud": 4.639504, "Longitud": -74.065185, "Localidad": "2" }, "geometry": { "type": "Point", "coordinates": [ -8244898.6797, 517032.552799999713898 ] } },
{ "type": "Feature", "properties": { "RegNTurism": 119891, "NomEstable": "PRESTO BTA VILLA DEL PRADO", "SubCatRNT": "N", "SecCatastr": "VILLA DEL PRADO", "Latitud": 4.755737, "Longitud": -74.054447, "Localidad": "11" }, "geometry": { "type": "Point", "coordinates": [ -8243703.331, 530015.164799999445677 ] } },
{ "type": "Feature", "properties": { "RegNTurism": 119959, "NomEstable": "PRESTO BTA CC LO NUESTRO", "SubCatRNT": "N", "SecCatastr": "LOS ALAMOS", "Latitud": 4.683705, "Longitud": -74.11492, "Localidad": "10" }, "geometry": { "type": "Point", "coordinates": [ -8250435.1546, 521969.316199999302626 ] } },
{ "type": "Feature", "properties": { "RegNTurism": 119971, "NomEstable": "PRESTO BTA EXITO COUNTRY", "SubCatRNT": "N", "SecCatastr": "LA CAROLINA", "Latitud": 4.712499, "Longitud": -74.03497, "Localidad": "1" }, "geometry": { "type": "Point", "coordinates": [ -8241535.161299999803, 525185.455499999225 ] } },
{ "type": "Feature", "properties": { "RegNTurism": 120295, "NomEstable": "CANDELARIO", "SubCatRNT": "K", "SecCatastr": "LA CATEDRAL", "Latitud": 4.598977, "Longitud": -74.072454, "Localidad": "17" }, "geometry": { "type": "Point", "coordinates": [ -8245707.861099999398, 512506.406300000846386 ] } },
{ "type": "Feature", "properties": { "RegNTurism": 120304, "NomEstable": "CANDELARIO", "SubCatRNT": "PC", "SecCatastr": "LA CATEDRAL", "Latitud": 4.598977, "Longitud": -74.072454, "Localidad": "17" }, "geometry": { "type": "Point", "coordinates": [ -8245707.861099999398, 512506.406300000846386 ] } },
{ "type": "Feature", "properties": { "RegNTurism": 120650, "NomEstable": "PRESTO BTA PORTAL 8", "SubCatRNT": "N", "SecCatastr": "BOCHICA II", "Latitud": 4.710366, "Longitud": -74.112403, "Localidad": "10" }, "geometry": { "type": "Point", "coordinates": [ -8250154.9634, 524947.206000000238419 ] } },
{ "type": "Feature", "properties": { "RegNTurism": 122663, "NomEstable": "AGADON UNICENTRO", "SubCatRNT": "PC", "SecCatastr": "SANTA BARBARA CENTRAL", "Latitud": 4.702757, "Longitud": -74.042769, "Localidad": "1" }, "geometry": { "type": "Point", "coordinates": [ -8242403.342, 524097.310199998319149 ] } },
{ "type": "Feature", "properties": { "RegNTurism": 122745, "NomEstable": "PATRIA UNICENTRO", "SubCatRNT": "PC", "SecCatastr": "SANTA BARBARA CENTRAL", "Latitud": 4.702757, "Longitud": -74.042769, "Localidad": "1" }, "geometry": { "type": "Point", "coordinates": [ -8242403.342, 524097.310199998319149 ] } },